[{"lon":21.24428,"lat":48.99291,"ROUTE_NUMBER":42,"DIRECTION":"P","BUS_STOP_ORDER_NUM":1,"BUS_STOP_NUM_1":2,"Current_Stop":"Na Hlavnej","BUS_STOP_SUB_NUM_2":1,"BUS_STOP_NUM_2":3,"Next_Stop":"Veľká pošta","PLANNED_ROAD":555,"REAL_ROAD":383,"DELAY":-63,"VEHICLE_NUMBER":372,"Current_Time":1615118277863,"Current_Day":7,"Current_Hour":12,"Current_Minutes":57,"Current_Seconds":57},{"lon":21.24274,"lat":48.99497,"ROUTE_NUMBER":5,"DIRECTION":"T","BUS_STOP_ORDER_NUM":6,"BUS_STOP_NUM_1":205,"Current_Stop":"Divadlo Jonáša Záborského","BUS_STOP_SUB_NUM_2":0,"BUS_STOP_NUM_2":2,"Next_Stop":"Na Hlavnej","PLANNED_ROAD":290,"REAL_ROAD":208,"DELAY":41,"VEHICLE_NUMBER":732,"Current_Time":1615118412801,"Current_Day":7,"Current_Hour":13,"Current_Minutes":0,"Current_Seconds":12},{"lon":21.24275,"lat":48.99484,"ROUTE_NUMBER":32,"DIRECTION":"P","BUS_STOP_ORDER_NUM":3,"BUS_STOP_NUM_1":2,"Current_Stop":"Na Hlavnej","BUS_STOP_SUB_NUM_2":1,"BUS_STOP_NUM_2":3,"Next_Stop":"Veľká pošta","PLANNED_ROAD":555,"REAL_ROAD":151,"DELAY":49,"VEHICLE_NUMBER":392,"Current_Time":1615118412801,"Current_Day":7,"Current_Hour":13,"Current_Minutes":0,"Current_Seconds":12},{"lon":21.24436,"lat":48.99296,"ROUTE_NUMBER":5,"DIRECTION":"T","BUS_STOP_ORDER_NUM":5,"BUS_STOP_NUM_1":4,"Current_Stop":"Čierny most","BUS_STOP_SUB_NUM_2":0,"BUS_STOP_NUM_2":205,"Next_Stop":"Divadlo Jonáša Záborského","PLANNED_ROAD":461,"REAL_ROAD":410,"DELAY":43,"VEHICLE_NUMBER":732,"Current_Time":1615118352792,"Current_Day":7,"Current_Hour":12,"Current_Minutes":59,"Current_Seconds":12},{"lon":21.24343,"lat":48.99411,"ROUTE_NUMBER":5,"DIRECTION":"T","BUS_STOP_ORDER_NUM":6,"BUS_STOP_NUM_1":205,"Current_Stop":"Divadlo Jonáša Záborského","BUS_STOP_SUB_NUM_2":0,"BUS_STOP_NUM_2":2,"Next_Stop":"Na Hlavnej","PLANNED_ROAD":290,"REAL_ROAD":98,"DELAY":36,"VEHICLE_NUMBER":732,"Current_Time":1615118397804,"Current_Day":7,"Current_Hour":12,"Current_Minutes":59,"Current_Seconds":57},{"lon":21.24443,"lat":48.98747,"ROUTE_NUMBER":38,"DIRECTION":"T","BUS_STOP_ORDER_NUM":8,"BUS_STOP_NUM_1":35,"Current_Stop":"Železničná stanica","BUS_STOP_SUB_NUM_2":0,"BUS_STOP_NUM_2":25,"Next_Stop":"Škultétyho","PLANNED_ROAD":990,"REAL_ROAD":792,"DELAY":-46,"VEHICLE_NUMBER":725,"Current_Time":1615118607819,"Current_Day":7,"Current_Hour":13,"Current_Minutes":3,"Current_Seconds":27},{"lon":21.24429,"lat":48.99307,"ROUTE_NUMBER":4,"DIRECTION":"T","BUS_STOP_ORDER_NUM":9,"BUS_STOP_NUM_1":4,"Current_Stop":"Čierny most","BUS_STOP_SUB_NUM_2":0,"BUS_STOP_NUM_2":205,"Next_Stop":"Divadlo Jonáša Záborského","PLANNED_ROAD":461,"REAL_ROAD":393,"DELAY":-200,"VEHICLE_NUMBER":743,"Current_Time":1615118652840,"Current_Day":7,"Current_Hour":13,"Current_Minutes":4,"Current_Seconds":12},{"lon":21.24163,"lat":48.98653,"ROUTE_NUMBER":38,"DIRECTION":"T","BUS_STOP_ORDER_NUM":9,"BUS_STOP_NUM_1":25,"Current_Stop":"Škultétyho","BUS_STOP_SUB_NUM_2":0,"BUS_STOP_NUM_2":199,"Next_Stop":"Prešovská univerzita","PLANNED_ROAD":766,"REAL_ROAD":13,"DELAY":-62,"VEHICLE_NUMBER":725,"Current_Time":1615118667829,"Current_Day":7,"Current_Hour":13,"Current_Minutes":4,"Current_Seconds":27},{"lon":21.24404,"lat":48.99338,"ROUTE_NUMBER":4,"DIRECTION":"T","BUS_STOP_ORDER_NUM":9,"BUS_STOP_NUM_1":4,"Current_Stop":"Čierny most","BUS_STOP_SUB_NUM_2":0,"BUS_STOP_NUM_2":205,"Next_Stop":"Divadlo Jonáša Záborského","PLANNED_ROAD":461,"REAL_ROAD":461,"DELAY":-187,"VEHICLE_NUMBER":743,"Current_Time":1615118667829,"Current_Day":7,"Current_Hour":13,"Current_Minutes":4,"Current_Seconds":27},{"lon":21.24522,"lat":48.99163,"ROUTE_NUMBER":4,"DIRECTION":"P","BUS_STOP_ORDER_NUM":10,"BUS_STOP_NUM_1":2,"Current_Stop":"Na Hlavnej","BUS_STOP_SUB_NUM_2":1,"BUS_STOP_NUM_2":3,"Next_Stop":"Veľká pošta","PLANNED_ROAD":555,"REAL_ROAD":544,"DELAY":117,"VEHICLE_NUMBER":742,"Current_Time":1615118709696,"Current_Day":7,"Current_Hour":13,"Current_Minutes":5,"Current_Seconds":9},{"lon":21.23868,"lat":48.98644,"ROUTE_NUMBER":38,"DIRECTION":"T","BUS_STOP_ORDER_NUM":9,"BUS_STOP_NUM_1":25,"Current_Stop":"Škultétyho","BUS_STOP_SUB_NUM_2":0,"BUS_STOP_NUM_2":199,"Next_Stop":"Prešovská univerzita","PLANNED_ROAD":766,"REAL_ROAD":285,"DELAY":-61,"VEHICLE_NUMBER":725,"Current_Time":1615118709696,"Current_Day":7,"Current_Hour":13,"Current_Minutes":5,"Current_Seconds":9},{"lon":21.2392,"lat":49.00072,"ROUTE_NUMBER":15,"DIRECTION":"P","BUS_STOP_ORDER_NUM":12,"BUS_STOP_NUM_1":156,"Current_Stop":"Poliklinika","BUS_STOP_SUB_NUM_2":1,"BUS_STOP_NUM_2":1,"Next_Stop":"Trojica","PLANNED_ROAD":530,"REAL_ROAD":346,"DELAY":-153,"VEHICLE_NUMBER":378,"Current_Time":1615118709696,"Current_Day":7,"Current_Hour":13,"Current_Minutes":5,"Current_Seconds":9},{"lon":21.18723,"lat":48.98607,"ROUTE_NUMBER":18,"DIRECTION":"T","BUS_STOP_ORDER_NUM":10,"BUS_STOP_NUM_1":168,"Current_Stop":"Kvašná voda","BUS_STOP_SUB_NUM_2":0,"BUS_STOP_NUM_2":169,"Next_Stop":"Zabíjaná","PLANNED_ROAD":1681,"REAL_ROAD":850,"DELAY":49,"VEHICLE_NUMBER":384,"Current_Time":1615118709696,"Current_Day":7,"Current_Hour":13,"Current_Minutes":5,"Current_Seconds":9},{"lon":21.22206,"lat":49.00999,"ROUTE_NUMBER":12,"DIRECTION":"T","BUS_STOP_ORDER_NUM":23,"BUS_STOP_NUM_1":189,"Current_Stop":"Nám.Kráľ.pokoja","BUS_STOP_SUB_NUM_2":0,"BUS_STOP_NUM_2":190,"Next_Stop":"VUKOV","PLANNED_ROAD":438,"REAL_ROAD":367,"DELAY":54,"VEHICLE_NUMBER":390,"Current_Time":1615118709696,"Current_Day":7,"Current_Hour":13,"Current_Minutes":5,"Current_Seconds":9},{"lon":21.24458,"lat":48.99297,"ROUTE_NUMBER":19,"DIRECTION":"P","BUS_STOP_ORDER_NUM":5,"BUS_STOP_NUM_1":120,"Current_Stop":"Moyzesova","BUS_STOP_SUB_NUM_2":1,"BUS_STOP_NUM_2":3,"Next_Stop":"Veľká pošta","PLANNED_ROAD":720,"REAL_ROAD":457,"DELAY":66,"VEHICLE_NUMBER":400,"Current_Time":1615118709696,"Current_Day":7,"Current_Hour":13,"Current_Minutes":5,"Current_Seconds":9},{"lon":21.23834,"lat":49.00662,"ROUTE_NUMBER":5,"DIRECTION":"T","BUS_STOP_ORDER_NUM":8,"BUS_STOP_NUM_1":1,"Current_Stop":"Trojica","BUS_STOP_SUB_NUM_2":0,"BUS_STOP_NUM_2":126,"Next_Stop":"Sabinovská","PLANNED_ROAD":740,"REAL_ROAD":740,"DELAY":70,"VEHICLE_NUMBER":732,"Current_Time":1615118709696,"Current_Day":7,"Current_Hour":13,"Current_Minutes":5,"Current_Seconds":9},{"lon":21.24321,"lat":48.97605,"ROUTE_NUMBER":42,"DIRECTION":"P","BUS_STOP_ORDER_NUM":6,"BUS_STOP_NUM_1":20,"Current_Stop":"Jilemnického","BUS_STOP_SUB_NUM_2":1,"BUS_STOP_NUM_2":523,"Next_Stop":"Pod Wilec.hôrkou","PLANNED_ROAD":755,"REAL_ROAD":178,"DELAY":-68,"VEHICLE_NUMBER":372,"Current_Time":1615118709696,"Current_Day":7,"Current_Hour":13,"Current_Minutes":5,"Current_Seconds":9},{"lon":21.22599,"lat":49.00087,"ROUTE_NUMBER":38,"DIRECTION":"P","BUS_STOP_ORDER_NUM":7,"BUS_STOP_NUM_1":187,"Current_Stop":"Clementisova","BUS_STOP_SUB_NUM_2":0,"BUS_STOP_NUM_2":195,"Next_Stop":"Obrancov mieru","PLANNED_ROAD":645,"REAL_ROAD":187,"DELAY":-71,"VEHICLE_NUMBER":731,"Current_Time":1615118709696,"Current_Day":7,"Current_Hour":13,"Current_Minutes":5,"Current_Seconds":9},{"lon":21.24785,"lat":48.98839,"ROUTE_NUMBER":28,"DIRECTION":"T","BUS_STOP_ORDER_NUM":8,"BUS_STOP_NUM_1":35,"Current_Stop":"Železničná stanica","BUS_STOP_SUB_NUM_2":0,"BUS_STOP_NUM_2":4,"Next_Stop":"Čierny most","PLANNED_ROAD":650,"REAL_ROAD":460,"DELAY":-17,"VEHICLE_NUMBER":399,"Current_Time":1615118709696,"Current_Day":7,"Current_Hour":13,"Current_Minutes":5,"Current_Seconds":9},{"lon":21.24237,"lat":48.99542,"ROUTE_NUMBER":4,"DIRECTION":"T","BUS_STOP_ORDER_NUM":10,"BUS_STOP_NUM_1":205,"Current_Stop":"Divadlo Jonáša Záborského","BUS_STOP_SUB_NUM_2":0,"BUS_STOP_NUM_2":2,"Next_Stop":"Na Hlavnej","PLANNED_ROAD":290,"REAL_ROAD":237,"DELAY":-190,"VEHICLE_NUMBER":743,"Current_Time":1615118709696,"Current_Day":7,"Current_Hour":13,"Current_Minutes":5,"Current_Seconds":9},{"lon":21.22197,"lat":49.00967,"ROUTE_NUMBER":8,"DIRECTION":"P","BUS_STOP_ORDER_NUM":4,"BUS_STOP_NUM_1":190,"Current_Stop":"VUKOV","BUS_STOP_SUB_NUM_2":1,"BUS_STOP_NUM_2":189,"Next_Stop":"Nám.Kráľ.pokoja","PLANNED_ROAD":585,"REAL_ROAD":292,"DELAY":42,"VEHICLE_NUMBER":727,"Current_Time":1615118709696,"Current_Day":7,"Current_Hour":13,"Current_Minutes":5,"Current_Seconds":9},{"lon":21.24391,"lat":48.99332,"ROUTE_NUMBER":4,"DIRECTION":"P","BUS_STOP_ORDER_NUM":10,"BUS_STOP_NUM_1":2,"Current_Stop":"Na Hlavnej","BUS_STOP_SUB_NUM_2":1,"BUS_STOP_NUM_2":3,"Next_Stop":"Veľká pošta","PLANNED_ROAD":555,"REAL_ROAD":338,"DELAY":117,"VEHICLE_NUMBER":742,"Current_Time":1615118667829,"Current_Day":7,"Current_Hour":13,"Current_Minutes":4,"Current_Seconds":27},{"lon":21.19326,"lat":49.03886,"ROUTE_NUMBER":45,"DIRECTION":"P","BUS_STOP_ORDER_NUM":2,"BUS_STOP_NUM_1":136,"Current_Stop":"Varoš","BUS_STOP_SUB_NUM_2":1,"BUS_STOP_NUM_2":155,"Next_Stop":"Nám.sv.Jakuba","PLANNED_ROAD":258,"REAL_ROAD":221,"DELAY":-128,"VEHICLE_NUMBER":362,"Current_Time":1615118709696,"Current_Day":7,"Current_Hour":13,"Current_Minutes":5,"Current_Seconds":9},{"lon":21.24877,"lat":48.95329,"ROUTE_NUMBER":26,"DIRECTION":"P","BUS_STOP_ORDER_NUM":5,"BUS_STOP_NUM_1":8,"Current_Stop":"Košická","BUS_STOP_SUB_NUM_2":1,"BUS_STOP_NUM_2":508,"Next_Stop":"SPINEA-Záturecká","PLANNED_ROAD":2600,"REAL_ROAD":2600,"DELAY":11,"VEHICLE_NUMBER":373,"Current_Time":1615121168655,"Current_Day":7,"Current_Hour":13,"Current_Minutes":46,"Current_Seconds":8},{"lon":21.2324,"lat":48.99389,"ROUTE_NUMBER":38,"DIRECTION":"T","BUS_STOP_ORDER_NUM":11,"BUS_STOP_NUM_1":198,"Current_Stop":"Duchnovičovo nám.","BUS_STOP_SUB_NUM_2":1,"BUS_STOP_NUM_2":197,"Next_Stop":"Nám.mládeže","PLANNED_ROAD":395,"REAL_ROAD":15,"DELAY":24,"VEHICLE_NUMBER":731,"Current_Time":1615121168655,"Current_Day":7,"Current_Hour":13,"Current_Minutes":46,"Current_Seconds":8},{"lon":21.2285,"lat":48.99681,"ROUTE_NUMBER":38,"DIRECTION":"P","BUS_STOP_ORDER_NUM":8,"BUS_STOP_NUM_1":195,"Current_Stop":"Obrancov mieru","BUS_STOP_SUB_NUM_2":1,"BUS_STOP_NUM_2":198,"Next_Stop":"Duchnovičovo nám.","PLANNED_ROAD":617,"REAL_ROAD":28,"DELAY":-49,"VEHICLE_NUMBER":744,"Current_Time":1615121168655,"Current_Day":7,"Current_Hour":13,"Current_Minutes":46,"Current_Seconds":8},{"lon":21.2382,"lat":49.00676,"ROUTE_NUMBER":5,"DIRECTION":"T","BUS_STOP_ORDER_NUM":9,"BUS_STOP_NUM_1":126,"Current_Stop":"Sabinovská","BUS_STOP_SUB_NUM_2":0,"BUS_STOP_NUM_2":127,"Next_Stop":"Mičurinova","PLANNED_ROAD":610,"REAL_ROAD":12,"DELAY":55,"VEHICLE_NUMBER":732,"Current_Time":1615118724428,"Current_Day":7,"Current_Hour":13,"Current_Minutes":5,"Current_Seconds":24},{"lon":21.23315,"lat":49.00082,"ROUTE_NUMBER":4,"DIRECTION":"T","BUS_STOP_ORDER_NUM":12,"BUS_STOP_NUM_1":1,"Current_Stop":"Trojica","BUS_STOP_SUB_NUM_2":0,"BUS_STOP_NUM_2":156,"Next_Stop":"Poliklinika","PLANNED_ROAD":640,"REAL_ROAD":640,"DELAY":-10,"VEHICLE_NUMBER":742,"Current_Time":1615121183668,"Current_Day":7,"Current_Hour":13,"Current_Minutes":46,"Current_Seconds":23},{"lon":21.24547,"lat":48.99137,"ROUTE_NUMBER":1,"DIRECTION":"P","BUS_STOP_ORDER_NUM":10,"BUS_STOP_NUM_1":3,"Current_Stop":"Veľká pošta","BUS_STOP_SUB_NUM_2":1,"BUS_STOP_NUM_2":4,"Next_Stop":"Čierny most","PLANNED_ROAD":220,"REAL_ROAD":22,"DELAY":58,"VEHICLE_NUMBER":737,"Current_Time":1615121183668,"Current_Day":7,"Current_Hour":13,"Current_Minutes":46,"Current_Seconds":23},{"lon":21.2482,"lat":48.98789,"ROUTE_NUMBER":1,"DIRECTION":"T","BUS_STOP_ORDER_NUM":6,"BUS_STOP_NUM_1":35,"Current_Stop":"Železničná stanica","BUS_STOP_SUB_NUM_2":0,"BUS_STOP_NUM_2":4,"Next_Stop":"Čierny most","PLANNED_ROAD":650,"REAL_ROAD":390,"DELAY":2,"VEHICLE_NUMBER":739,"Current_Time":1615121183668,"Current_Day":7,"Current_Hour":13,"Current_Minutes":46,"Current_Seconds":23},{"lon":21.24672,"lat":48.9898,"ROUTE_NUMBER":4,"DIRECTION":"P","BUS_STOP_ORDER_NUM":12,"BUS_STOP_NUM_1":4,"Current_Stop":"Čierny most","BUS_STOP_SUB_NUM_2":1,"BUS_STOP_NUM_2":35,"Next_Stop":"Železničná stanica","PLANNED_ROAD":790,"REAL_ROAD":7,"DELAY":119,"VEHICLE_NUMBER":726,"Current_Time":1615121183668,"Current_Day":7,"Current_Hour":13,"Current_Minutes":46,"Current_Seconds":23},{"lon":21.24504,"lat":48.9919,"ROUTE_NUMBER":1,"DIRECTION":"P","BUS_STOP_ORDER_NUM":9,"BUS_STOP_NUM_1":2,"Current_Stop":"Na Hlavnej","BUS_STOP_SUB_NUM_2":1,"BUS_STOP_NUM_2":3,"Next_Stop":"Veľká pošta","PLANNED_ROAD":555,"REAL_ROAD":524,"DELAY":66,"VEHICLE_NUMBER":737,"Current_Time":1615121153701,"Current_Day":7,"Current_Hour":13,"Current_Minutes":45,"Current_Seconds":53},{"lon":21.23453,"lat":48.99137,"ROUTE_NUMBER":2,"DIRECTION":"P","BUS_STOP_ORDER_NUM":12,"BUS_STOP_NUM_1":199,"Current_Stop":"Prešovská univerzita","BUS_STOP_SUB_NUM_2":0,"BUS_STOP_NUM_2":198,"Next_Stop":"Duchnovičovo nám.","PLANNED_ROAD":439,"REAL_ROAD":140,"DELAY":-144,"VEHICLE_NUMBER":732,"Current_Time":1615121153701,"Current_Day":7,"Current_Hour":13,"Current_Minutes":45,"Current_Seconds":53},{"lon":21.23994,"lat":48.99895,"ROUTE_NUMBER":5,"DIRECTION":"P","BUS_STOP_ORDER_NUM":2,"BUS_STOP_NUM_1":1,"Current_Stop":"Trojica","BUS_STOP_SUB_NUM_2":1,"BUS_STOP_NUM_2":2,"Next_Stop":"Na Hlavnej","PLANNED_ROAD":394,"REAL_ROAD":42,"DELAY":-80,"VEHICLE_NUMBER":396,"Current_Time":1615121153701,"Current_Day":7,"Current_Hour":13,"Current_Minutes":45,"Current_Seconds":53},{"lon":21.23842,"lat":49.00558,"ROUTE_NUMBER":22,"DIRECTION":"P","BUS_STOP_ORDER_NUM":8,"BUS_STOP_NUM_1":126,"Current_Stop":"Sabinovská","BUS_STOP_SUB_NUM_2":1,"BUS_STOP_NUM_2":1,"Next_Stop":"Trojica","PLANNED_ROAD":750,"REAL_ROAD":17,"DELAY":31,"VEHICLE_NUMBER":385,"Current_Time":1615121153701,"Current_Day":7,"Current_Hour":13,"Current_Minutes":45,"Current_Seconds":53},{"lon":21.2325,"lat":48.99378,"ROUTE_NUMBER":38,"DIRECTION":"T","BUS_STOP_ORDER_NUM":10,"BUS_STOP_NUM_1":199,"Current_Stop":"Prešovská univerzita","BUS_STOP_SUB_NUM_2":0,"BUS_STOP_NUM_2":198,"Next_Stop":"Duchnovičovo nám.","PLANNED_ROAD":439,"REAL_ROAD":439,"DELAY":41,"VEHICLE_NUMBER":731,"Current_Time":1615121153701,"Current_Day":7,"Current_Hour":13,"Current_Minutes":45,"Current_Seconds":53},{"lon":21.22833,"lat":48.99702,"ROUTE_NUMBER":38,"DIRECTION":"P","BUS_STOP_ORDER_NUM":7,"BUS_STOP_NUM_1":187,"Current_Stop":"Clementisova","BUS_STOP_SUB_NUM_2":0,"BUS_STOP_NUM_2":195,"Next_Stop":"Obrancov mieru","PLANNED_ROAD":645,"REAL_ROAD":645,"DELAY":-33,"VEHICLE_NUMBER":744,"Current_Time":1615121153701,"Current_Day":7,"Current_Hour":13,"Current_Minutes":45,"Current_Seconds":53},{"lon":21.2361,"lat":49.01708,"ROUTE_NUMBER":45,"DIRECTION":"T","BUS_STOP_ORDER_NUM":15,"BUS_STOP_NUM_1":128,"Current_Stop":"Pod Skalkou","BUS_STOP_SUB_NUM_2":0,"BUS_STOP_NUM_2":129,"Next_Stop":"Rázc.Šidlovec","PLANNED_ROAD":600,"REAL_ROAD":180,"DELAY":-17,"VEHICLE_NUMBER":367,"Current_Time":1615121153701,"Current_Day":7,"Current_Hour":13,"Current_Minutes":45,"Current_Seconds":53},{"lon":21.22312,"lat":49.01589,"ROUTE_NUMBER":8,"DIRECTION":"P","BUS_STOP_ORDER_NUM":3,"BUS_STOP_NUM_1":191,"Current_Stop":"Centrum","BUS_STOP_SUB_NUM_2":1,"BUS_STOP_NUM_2":190,"Next_Stop":"VUKOV","PLANNED_ROAD":517,"REAL_ROAD":108,"DELAY":-130,"VEHICLE_NUMBER":724,"Current_Time":1615121153701,"Current_Day":7,"Current_Hour":13,"Current_Minutes":45,"Current_Seconds":53},{"lon":21.23949,"lat":48.9998,"ROUTE_NUMBER":2,"DIRECTION":"T","BUS_STOP_ORDER_NUM":7,"BUS_STOP_NUM_1":2,"Current_Stop":"Na Hlavnej","BUS_STOP_SUB_NUM_2":0,"BUS_STOP_NUM_2":1,"Next_Stop":"Trojica","PLANNED_ROAD":560,"REAL_ROAD":509,"DELAY":11,"VEHICLE_NUMBER":733,"Current_Time":1615121153701,"Current_Day":7,"Current_Hour":13,"Current_Minutes":45,"Current_Seconds":53},{"lon":21.24855,"lat":48.98732,"ROUTE_NUMBER":1,"DIRECTION":"T","BUS_STOP_ORDER_NUM":6,"BUS_STOP_NUM_1":35,"Current_Stop":"Železničná stanica","BUS_STOP_SUB_NUM_2":0,"BUS_STOP_NUM_2":4,"Next_Stop":"Čierny most","PLANNED_ROAD":650,"REAL_ROAD":336,"DELAY":22,"VEHICLE_NUMBER":739,"Current_Time":1615121153701,"Current_Day":7,"Current_Hour":13,"Current_Minutes":45,"Current_Seconds":53},{"lon":21.23484,"lat":48.98321,"ROUTE_NUMBER":27,"DIRECTION":"P","BUS_STOP_ORDER_NUM":11,"BUS_STOP_NUM_1":26,"Current_Stop":"Mestská hala","BUS_STOP_SUB_NUM_2":1,"BUS_STOP_NUM_2":27,"Next_Stop":"Pod Kamennou baňou","PLANNED_ROAD":250,"REAL_ROAD":150,"DELAY":58,"VEHICLE_NUMBER":389,"Current_Time":1615121153701,"Current_Day":7,"Current_Hour":13,"Current_Minutes":45,"Current_Seconds":53},{"lon":21.24626,"lat":48.9904,"ROUTE_NUMBER":4,"DIRECTION":"P","BUS_STOP_ORDER_NUM":11,"BUS_STOP_NUM_1":3,"Current_Stop":"Veľká pošta","BUS_STOP_SUB_NUM_2":1,"BUS_STOP_NUM_2":4,"Next_Stop":"Čierny most","PLANNED_ROAD":220,"REAL_ROAD":154,"DELAY":131,"VEHICLE_NUMBER":726,"Current_Time":1615121153701,"Current_Day":7,"Current_Hour":13,"Current_Minutes":45,"Current_Seconds":53},{"lon":21.23602,"lat":49.00109,"ROUTE_NUMBER":4,"DIRECTION":"T","BUS_STOP_ORDER_NUM":12,"BUS_STOP_NUM_1":1,"Current_Stop":"Trojica","BUS_STOP_SUB_NUM_2":0,"BUS_STOP_NUM_2":156,"Next_Stop":"Poliklinika","PLANNED_ROAD":640,"REAL_ROAD":418,"DELAY":-15,"VEHICLE_NUMBER":742,"Current_Time":1615121153701,"Current_Day":7,"Current_Hour":13,"Current_Minutes":45,"Current_Seconds":53},{"lon":21.23931,"lat":49.00017,"ROUTE_NUMBER":12,"DIRECTION":"P","BUS_STOP_ORDER_NUM":21,"BUS_STOP_NUM_1":2,"Current_Stop":"Na Hlavnej","BUS_STOP_SUB_NUM_2":0,"BUS_STOP_NUM_2":1,"Next_Stop":"Trojica","PLANNED_ROAD":560,"REAL_ROAD":560,"DELAY":96,"VEHICLE_NUMBER":390,"Current_Time":1615121153701,"Current_Day":7,"Current_Hour":13,"Current_Minutes":45,"Current_Seconds":53},{"lon":21.24685,"lat":48.98968,"ROUTE_NUMBER":1,"DIRECTION":"P","BUS_STOP_ORDER_NUM":11,"BUS_STOP_NUM_1":4,"Current_Stop":"Čierny most","BUS_STOP_SUB_NUM_2":1,"BUS_STOP_NUM_2":35,"Next_Stop":"Železničná stanica","PLANNED_ROAD":790,"REAL_ROAD":21,"DELAY":57,"VEHICLE_NUMBER":737,"Current_Time":1615121243672,"Current_Day":7,"Current_Hour":13,"Current_Minutes":47,"Current_Seconds":23},{"lon":21.24822,"lat":48.98788,"ROUTE_NUMBER":1,"DIRECTION":"T","BUS_STOP_ORDER_NUM":6,"BUS_STOP_NUM_1":35,"Current_Stop":"Železničná stanica","BUS_STOP_SUB_NUM_2":0,"BUS_STOP_NUM_2":4,"Next_Stop":"Čierny most","PLANNED_ROAD":650,"REAL_ROAD":390,"DELAY":-53,"VEHICLE_NUMBER":739,"Current_Time":1615121243672,"Current_Day":7,"Current_Hour":13,"Current_Minutes":47,"Current_Seconds":23},{"lon":21.24184,"lat":48.99597,"ROUTE_NUMBER":5,"DIRECTION":"P","BUS_STOP_ORDER_NUM":3,"BUS_STOP_NUM_1":2,"Current_Stop":"Na Hlavnej","BUS_STOP_SUB_NUM_2":1,"BUS_STOP_NUM_2":3,"Next_Stop":"Veľká pošta","PLANNED_ROAD":555,"REAL_ROAD":20,"DELAY":-52,"VEHICLE_NUMBER":396,"Current_Time":1615121243672,"Current_Day":7,"Current_Hour":13,"Current_Minutes":47,"Current_Seconds":23},{"lon":21.23922,"lat":49.00038,"ROUTE_NUMBER":12,"DIRECTION":"P","BUS_STOP_ORDER_NUM":22,"BUS_STOP_NUM_1":1,"Current_Stop":"Trojica","BUS_STOP_SUB_NUM_2":0,"BUS_STOP_NUM_2":78,"Next_Stop":"Duklianska","PLANNED_ROAD":540,"REAL_ROAD":19,"DELAY":51,"VEHICLE_NUMBER":390,"Current_Time":1615121198670,"Current_Day":7,"Current_Hour":13,"Current_Minutes":46,"Current_Seconds":38},{"lon":21.22882,"lat":49.02365,"ROUTE_NUMBER":39,"DIRECTION":"P","BUS_STOP_ORDER_NUM":1,"BUS_STOP_NUM_1":193,"Current_Stop":"Sídlisko III","BUS_STOP_SUB_NUM_2":1,"BUS_STOP_NUM_2":192,"Next_Stop":"Prostějovská","PLANNED_ROAD":415,"REAL_ROAD":0,"DELAY":-15,"VEHICLE_NUMBER":380,"Current_Time":1615121198670,"Current_Day":7,"Current_Hour":13,"Current_Minutes":46,"Current_Seconds":38},{"lon":21.23579,"lat":49.02066,"ROUTE_NUMBER":45,"DIRECTION":"T","BUS_STOP_ORDER_NUM":16,"BUS_STOP_NUM_1":129,"Current_Stop":"Rázc.Šidlovec","BUS_STOP_SUB_NUM_2":0,"BUS_STOP_NUM_2":130,"Next_Stop":"Dúbrava","PLANNED_ROAD":610,"REAL_ROAD":22,"DELAY":-11,"VEHICLE_NUMBER":367,"Current_Time":1615121198670,"Current_Day":7,"Current_Hour":13,"Current_Minutes":46,"Current_Seconds":38},{"lon":21.232,"lat":48.99471,"ROUTE_NUMBER":2,"DIRECTION":"P","BUS_STOP_ORDER_NUM":13,"BUS_STOP_NUM_1":198,"Current_Stop":"Duchnovičovo nám.","BUS_STOP_SUB_NUM_2":1,"BUS_STOP_NUM_2":197,"Next_Stop":"Nám.mládeže","PLANNED_ROAD":395,"REAL_ROAD":94,"DELAY":-144,"VEHICLE_NUMBER":732,"Current_Time":1615121213674,"Current_Day":7,"Current_Hour":13,"Current_Minutes":46,"Current_Seconds":53},{"lon":21.23931,"lat":49.0001,"ROUTE_NUMBER":2,"DIRECTION":"T","BUS_STOP_ORDER_NUM":7,"BUS_STOP_NUM_1":2,"Current_Stop":"Na Hlavnej","BUS_STOP_SUB_NUM_2":0,"BUS_STOP_NUM_2":1,"Next_Stop":"Trojica","PLANNED_ROAD":560,"REAL_ROAD":560,"DELAY":-37,"VEHICLE_NUMBER":733,"Current_Time":1615121213674,"Current_Day":7,"Current_Hour":13,"Current_Minutes":46,"Current_Seconds":53},{"lon":21.22971,"lat":48.99509,"ROUTE_NUMBER":2,"DIRECTION":"P","BUS_STOP_ORDER_NUM":13,"BUS_STOP_NUM_1":198,"Current_Stop":"Duchnovičovo nám.","BUS_STOP_SUB_NUM_2":1,"BUS_STOP_NUM_2":197,"Next_Stop":"Nám.mládeže","PLANNED_ROAD":395,"REAL_ROAD":323,"DELAY":-159,"VEHICLE_NUMBER":732,"Current_Time":1615121258678,"Current_Day":7,"Current_Hour":13,"Current_Minutes":47,"Current_Seconds":38},{"lon":21.2472,"lat":48.98916,"ROUTE_NUMBER":4,"DIRECTION":"P","BUS_STOP_ORDER_NUM":12,"BUS_STOP_NUM_1":4,"Current_Stop":"Čierny most","BUS_STOP_SUB_NUM_2":1,"BUS_STOP_NUM_2":35,"Next_Stop":"Železničná stanica","PLANNED_ROAD":790,"REAL_ROAD":86,"DELAY":117,"VEHICLE_NUMBER":726,"Current_Time":1615121198670,"Current_Day":7,"Current_Hour":13,"Current_Minutes":46,"Current_Seconds":38},{"lon":21.22942,"lat":48.99559,"ROUTE_NUMBER":38,"DIRECTION":"T","BUS_STOP_ORDER_NUM":12,"BUS_STOP_NUM_1":197,"Current_Stop":"Nám.mládeže","BUS_STOP_SUB_NUM_2":2,"BUS_STOP_NUM_2":195,"Next_Stop":"Obrancov mieru","PLANNED_ROAD":305,"REAL_ROAD":18,"DELAY":-12,"VEHICLE_NUMBER":731,"Current_Time":1615121258678,"Current_Day":7,"Current_Hour":13,"Current_Minutes":47,"Current_Seconds":38},{"lon":21.23267,"lat":48.99336,"ROUTE_NUMBER":38,"DIRECTION":"P","BUS_STOP_ORDER_NUM":8,"BUS_STOP_NUM_1":195,"Current_Stop":"Obrancov mieru","BUS_STOP_SUB_NUM_2":1,"BUS_STOP_NUM_2":198,"Next_Stop":"Duchnovičovo nám.","PLANNED_ROAD":617,"REAL_ROAD":617,"DELAY":-25,"VEHICLE_NUMBER":744,"Current_Time":1615121258678,"Current_Day":7,"Current_Hour":13,"Current_Minutes":47,"Current_Seconds":38},{"lon":21.2392,"lat":49.00035,"ROUTE_NUMBER":2,"DIRECTION":"T","BUS_STOP_ORDER_NUM":8,"BUS_STOP_NUM_1":1,"Current_Stop":"Trojica","BUS_STOP_SUB_NUM_2":0,"BUS_STOP_NUM_2":156,"Next_Stop":"Poliklinika","PLANNED_ROAD":640,"REAL_ROAD":34,"DELAY":-74,"VEHICLE_NUMBER":733,"Current_Time":1615121258678,"Current_Day":7,"Current_Hour":13,"Current_Minutes":47,"Current_Seconds":38},{"lon":21.23304,"lat":49.0008,"ROUTE_NUMBER":4,"DIRECTION":"T","BUS_STOP_ORDER_NUM":13,"BUS_STOP_NUM_1":156,"Current_Stop":"Poliklinika","BUS_STOP_SUB_NUM_2":0,"BUS_STOP_NUM_2":187,"Next_Stop":"Clementisova","PLANNED_ROAD":760,"REAL_ROAD":8,"DELAY":-21,"VEHICLE_NUMBER":742,"Current_Time":1615121198670,"Current_Day":7,"Current_Hour":13,"Current_Minutes":46,"Current_Seconds":38},{"lon":21.23386,"lat":48.98345,"ROUTE_NUMBER":27,"DIRECTION":"P","BUS_STOP_ORDER_NUM":12,"BUS_STOP_NUM_1":27,"Current_Stop":"Pod Kamennou baňou","BUS_STOP_SUB_NUM_2":1,"BUS_STOP_NUM_2":514,"Next_Stop":"Slávičia ","PLANNED_ROAD":650,"REAL_ROAD":17,"DELAY":53,"VEHICLE_NUMBER":389,"Current_Time":1615121198670,"Current_Day":7,"Current_Hour":13,"Current_Minutes":46,"Current_Seconds":38},{"lon":21.22427,"lat":49.00162,"ROUTE_NUMBER":8,"DIRECTION":"P","BUS_STOP_ORDER_NUM":7,"BUS_STOP_NUM_1":187,"Current_Stop":"Clementisova","BUS_STOP_SUB_NUM_2":1,"BUS_STOP_NUM_2":156,"Next_Stop":"Poliklinika","PLANNED_ROAD":1005,"REAL_ROAD":23,"DELAY":-101,"VEHICLE_NUMBER":724,"Current_Time":1615121408736,"Current_Day":7,"Current_Hour":13,"Current_Minutes":50,"Current_Seconds":8},{"lon":21.23155,"lat":49.00067,"ROUTE_NUMBER":2,"DIRECTION":"T","BUS_STOP_ORDER_NUM":9,"BUS_STOP_NUM_1":156,"Current_Stop":"Poliklinika","BUS_STOP_SUB_NUM_2":1,"BUS_STOP_NUM_2":195,"Next_Stop":"Obrancov mieru","PLANNED_ROAD":775,"REAL_ROAD":123,"DELAY":-86,"VEHICLE_NUMBER":733,"Current_Time":1615121408736,"Current_Day":7,"Current_Hour":13,"Current_Minutes":50,"Current_Seconds":8},{"lon":21.21199,"lat":49.0419,"ROUTE_NUMBER":45,"DIRECTION":"T","BUS_STOP_ORDER_NUM":19,"BUS_STOP_NUM_1":530,"Current_Stop":"Šariš park","BUS_STOP_SUB_NUM_2":0,"BUS_STOP_NUM_2":133,"Next_Stop":"Pivovar","PLANNED_ROAD":450,"REAL_ROAD":126,"DELAY":76,"VEHICLE_NUMBER":367,"Current_Time":1615121423735,"Current_Day":7,"Current_Hour":13,"Current_Minutes":50,"Current_Seconds":23},{"lon":21.2417,"lat":48.99617,"ROUTE_NUMBER":1,"DIRECTION":"T","BUS_STOP_ORDER_NUM":9,"BUS_STOP_NUM_1":2,"Current_Stop":"Na Hlavnej","BUS_STOP_SUB_NUM_2":0,"BUS_STOP_NUM_2":1,"Next_Stop":"Trojica","PLANNED_ROAD":560,"REAL_ROAD":66,"DELAY":-2,"VEHICLE_NUMBER":739,"Current_Time":1615121438745,"Current_Day":7,"Current_Hour":13,"Current_Minutes":50,"Current_Seconds":38},{"lon":21.2217,"lat":49.00799,"ROUTE_NUMBER":4,"DIRECTION":"T","BUS_STOP_ORDER_NUM":16,"BUS_STOP_NUM_1":189,"Current_Stop":"Nám.Kráľ.pokoja","BUS_STOP_SUB_NUM_2":0,"BUS_STOP_NUM_2":190,"Next_Stop":"VUKOV","PLANNED_ROAD":438,"REAL_ROAD":148,"DELAY":41,"VEHICLE_NUMBER":742,"Current_Time":1615121453736,"Current_Day":7,"Current_Hour":13,"Current_Minutes":50,"Current_Seconds":53},{"lon":21.22005,"lat":48.98861,"ROUTE_NUMBER":27,"DIRECTION":"P","BUS_STOP_ORDER_NUM":15,"BUS_STOP_NUM_1":519,"Current_Stop":"Súľovská","BUS_STOP_SUB_NUM_2":1,"BUS_STOP_NUM_2":518,"Next_Stop":"Terchovská","PLANNED_ROAD":500,"REAL_ROAD":136,"DELAY":68,"VEHICLE_NUMBER":389,"Current_Time":1615121453736,"Current_Day":7,"Current_Hour":13,"Current_Minutes":50,"Current_Seconds":53},{"lon":21.23714,"lat":49.00117,"ROUTE_NUMBER":5,"DIRECTION":"P","BUS_STOP_ORDER_NUM":1,"BUS_STOP_NUM_1":195,"Current_Stop":"Obrancov mieru","BUS_STOP_SUB_NUM_2":1,"BUS_STOP_NUM_2":156,"Next_Stop":"Poliklinika","PLANNED_ROAD":850,"REAL_ROAD":850,"DELAY":-128,"VEHICLE_NUMBER":732,"Current_Time":1615121483751,"Current_Day":7,"Current_Hour":13,"Current_Minutes":51,"Current_Seconds":23},{"lon":21.23843,"lat":49.00151,"ROUTE_NUMBER":5,"DIRECTION":"P","BUS_STOP_ORDER_NUM":2,"BUS_STOP_NUM_1":156,"Current_Stop":"Poliklinika","BUS_STOP_SUB_NUM_2":1,"BUS_STOP_NUM_2":1,"Next_Stop":"Trojica","PLANNED_ROAD":530,"REAL_ROAD":173,"DELAY":-100,"VEHICLE_NUMBER":732,"Current_Time":1615121498765,"Current_Day":7,"Current_Hour":13,"Current_Minutes":51,"Current_Seconds":38},{"lon":21.24374,"lat":48.98103,"ROUTE_NUMBER":5,"DIRECTION":"P","BUS_STOP_ORDER_NUM":7,"BUS_STOP_NUM_1":23,"Current_Stop":"Priemyselné centrum","BUS_STOP_SUB_NUM_2":1,"BUS_STOP_NUM_2":22,"Next_Stop":"Pekárne","PLANNED_ROAD":447,"REAL_ROAD":187,"DELAY":59,"VEHICLE_NUMBER":396,"Current_Time":1615121498765,"Current_Day":7,"Current_Hour":13,"Current_Minutes":51,"Current_Seconds":38},{"lon":21.24384,"lat":48.99356,"ROUTE_NUMBER":8,"DIRECTION":"T","BUS_STOP_ORDER_NUM":10,"BUS_STOP_NUM_1":205,"Current_Stop":"Divadlo Jonáša Záborského","BUS_STOP_SUB_NUM_2":0,"BUS_STOP_NUM_2":2,"Next_Stop":"Na Hlavnej","PLANNED_ROAD":290,"REAL_ROAD":23,"DELAY":-13,"VEHICLE_NUMBER":727,"Current_Time":1615121498765,"Current_Day":7,"Current_Hour":13,"Current_Minutes":51,"Current_Seconds":38},{"lon":21.23925,"lat":49.0004,"ROUTE_NUMBER":1,"DIRECTION":"T","BUS_STOP_ORDER_NUM":10,"BUS_STOP_NUM_1":1,"Current_Stop":"Trojica","BUS_STOP_SUB_NUM_2":0,"BUS_STOP_NUM_2":78,"Next_Stop":"Duklianska","PLANNED_ROAD":540,"REAL_ROAD":19,"DELAY":39,"VEHICLE_NUMBER":739,"Current_Time":1615121513767,"Current_Day":7,"Current_Hour":13,"Current_Minutes":51,"Current_Seconds":53},{"lon":21.24745,"lat":48.98842,"ROUTE_NUMBER":38,"DIRECTION":"P","BUS_STOP_ORDER_NUM":11,"BUS_STOP_NUM_1":25,"Current_Stop":"Škultétyho","BUS_STOP_SUB_NUM_2":1,"BUS_STOP_NUM_2":35,"Next_Stop":"Železničná stanica","PLANNED_ROAD":1110,"REAL_ROAD":476,"DELAY":-25,"VEHICLE_NUMBER":744,"Current_Time":1615121513767,"Current_Day":7,"Current_Hour":13,"Current_Minutes":51,"Current_Seconds":53},{"lon":21.242,"lat":48.99584,"ROUTE_NUMBER":8,"DIRECTION":"T","BUS_STOP_ORDER_NUM":11,"BUS_STOP_NUM_1":2,"Current_Stop":"Na Hlavnej","BUS_STOP_SUB_NUM_2":0,"BUS_STOP_NUM_2":1,"Next_Stop":"Trojica","PLANNED_ROAD":560,"REAL_ROAD":25,"DELAY":0,"VEHICLE_NUMBER":727,"Current_Time":1615121543771,"Current_Day":7,"Current_Hour":13,"Current_Minutes":52,"Current_Seconds":23},{"lon":21.24383,"lat":48.99356,"ROUTE_NUMBER":18,"DIRECTION":"T","BUS_STOP_ORDER_NUM":2,"BUS_STOP_NUM_1":205,"Current_Stop":"Divadlo Jonáša Záborského","BUS_STOP_SUB_NUM_2":0,"BUS_STOP_NUM_2":2,"Next_Stop":"Na Hlavnej","PLANNED_ROAD":290,"REAL_ROAD":23,"DELAY":-74,"VEHICLE_NUMBER":392,"Current_Time":1615121558780,"Current_Day":7,"Current_Hour":13,"Current_Minutes":52,"Current_Seconds":38},{"lon":21.22147,"lat":49.00685,"ROUTE_NUMBER":38,"DIRECTION":"T","BUS_STOP_ORDER_NUM":16,"BUS_STOP_NUM_1":189,"Current_Stop":"Nám.Kráľ.pokoja","BUS_STOP_SUB_NUM_2":0,"BUS_STOP_NUM_2":190,"Next_Stop":"VUKOV","PLANNED_ROAD":438,"REAL_ROAD":17,"DELAY":-5,"VEHICLE_NUMBER":731,"Current_Time":1615121558780,"Current_Day":7,"Current_Hour":13,"Current_Minutes":52,"Current_Seconds":38},{"lon":21.24024,"lat":48.9985,"ROUTE_NUMBER":8,"DIRECTION":"T","BUS_STOP_ORDER_NUM":11,"BUS_STOP_NUM_1":2,"Current_Stop":"Na Hlavnej","BUS_STOP_SUB_NUM_2":0,"BUS_STOP_NUM_2":1,"Next_Stop":"Trojica","PLANNED_ROAD":560,"REAL_ROAD":346,"DELAY":36,"VEHICLE_NUMBER":727,"Current_Time":1615121573781,"Current_Day":7,"Current_Hour":13,"Current_Minutes":52,"Current_Seconds":53},{"lon":21.23671,"lat":49.00107,"ROUTE_NUMBER":8,"DIRECTION":"P","BUS_STOP_ORDER_NUM":8,"BUS_STOP_NUM_1":156,"Current_Stop":"Poliklinika","BUS_STOP_SUB_NUM_2":1,"BUS_STOP_NUM_2":1,"Next_Stop":"Trojica","PLANNED_ROAD":530,"REAL_ROAD":57,"DELAY":-82,"VEHICLE_NUMBER":724,"Current_Time":1615121573781,"Current_Day":7,"Current_Hour":13,"Current_Minutes":52,"Current_Seconds":53},{"lon":21.22349,"lat":49.01728,"ROUTE_NUMBER":4,"DIRECTION":"T","BUS_STOP_ORDER_NUM":18,"BUS_STOP_NUM_1":191,"Current_Stop":"Centrum","BUS_STOP_SUB_NUM_2":0,"BUS_STOP_NUM_2":192,"Next_Stop":"Prostějovská","PLANNED_ROAD":457,"REAL_ROAD":18,"DELAY":80,"VEHICLE_NUMBER":742,"Current_Time":1615121588783,"Current_Day":7,"Current_Hour":13,"Current_Minutes":53,"Current_Seconds":8},{"lon":21.23335,"lat":49.00808,"ROUTE_NUMBER":39,"DIRECTION":"P","BUS_STOP_ORDER_NUM":6,"BUS_STOP_NUM_1":152,"Current_Stop":"Jazdecká","BUS_STOP_SUB_NUM_2":1,"BUS_STOP_NUM_2":126,"Next_Stop":"Sabinovská","PLANNED_ROAD":709,"REAL_ROAD":85,"DELAY":21,"VEHICLE_NUMBER":380,"Current_Time":1615121588783,"Current_Day":7,"Current_Hour":13,"Current_Minutes":53,"Current_Seconds":8},{"lon":21.24373,"lat":49.00353,"ROUTE_NUMBER":1,"DIRECTION":"T","BUS_STOP_ORDER_NUM":11,"BUS_STOP_NUM_1":78,"Current_Stop":"Duklianska","BUS_STOP_SUB_NUM_2":0,"BUS_STOP_NUM_2":79,"Next_Stop":"Rázcestie Kúty","PLANNED_ROAD":760,"REAL_ROAD":20,"DELAY":59,"VEHICLE_NUMBER":739,"Current_Time":1615121603798,"Current_Day":7,"Current_Hour":13,"Current_Minutes":53,"Current_Seconds":23},{"lon":21.22326,"lat":48.99472,"ROUTE_NUMBER":15,"DIRECTION":"P","BUS_STOP_ORDER_NUM":9,"BUS_STOP_NUM_1":180,"Current_Stop":"Sázavského","BUS_STOP_SUB_NUM_2":0,"BUS_STOP_NUM_2":179,"Next_Stop":"Odborárska","PLANNED_ROAD":270,"REAL_ROAD":43,"DELAY":21,"VEHICLE_NUMBER":378,"Current_Time":1615121828904,"Current_Day":7,"Current_Hour":13,"Current_Minutes":57,"Current_Seconds":8},{"lon":21.22072,"lat":49.00362,"ROUTE_NUMBER":4,"DIRECTION":"P","BUS_STOP_ORDER_NUM":5,"BUS_STOP_NUM_1":189,"Current_Stop":"Nám.Kráľ.pokoja","BUS_STOP_SUB_NUM_2":1,"BUS_STOP_NUM_2":188,"Next_Stop":"Volgogradská","PLANNED_ROAD":387,"REAL_ROAD":387,"DELAY":-114,"VEHICLE_NUMBER":725,"Current_Time":1615121963970,"Current_Day":7,"Current_Hour":13,"Current_Minutes":59,"Current_Seconds":23},{"lon":21.22071,"lat":49.00284,"ROUTE_NUMBER":4,"DIRECTION":"P","BUS_STOP_ORDER_NUM":6,"BUS_STOP_NUM_1":188,"Current_Stop":"Volgogradská","BUS_STOP_SUB_NUM_2":1,"BUS_STOP_NUM_2":187,"Next_Stop":"Clementisova","PLANNED_ROAD":350,"REAL_ROAD":84,"DELAY":-126,"VEHICLE_NUMBER":725,"Current_Time":1615121978982,"Current_Day":7,"Current_Hour":13,"Current_Minutes":59,"Current_Seconds":38},{"lon":21.24972,"lat":48.98456,"ROUTE_NUMBER":4,"DIRECTION":"T","BUS_STOP_ORDER_NUM":8,"BUS_STOP_NUM_1":35,"Current_Stop":"Železničná stanica","BUS_STOP_SUB_NUM_2":0,"BUS_STOP_NUM_2":4,"Next_Stop":"Čierny most","PLANNED_ROAD":650,"REAL_ROAD":23,"DELAY":-139,"VEHICLE_NUMBER":723,"Current_Time":1615121978982,"Current_Day":7,"Current_Hour":13,"Current_Minutes":59,"Current_Seconds":38},{"lon":21.22861,"lat":48.9998,"ROUTE_NUMBER":15,"DIRECTION":"P","BUS_STOP_ORDER_NUM":11,"BUS_STOP_NUM_1":177,"Current_Stop":"Centrál","BUS_STOP_SUB_NUM_2":1,"BUS_STOP_NUM_2":156,"Next_Stop":"Poliklinika","PLANNED_ROAD":854,"REAL_ROAD":318,"DELAY":5,"VEHICLE_NUMBER":378,"Current_Time":1615122008976,"Current_Day":7,"Current_Hour":14,"Current_Minutes":0,"Current_Seconds":8},{"lon":21.24379,"lat":48.99346,"ROUTE_NUMBER":39,"DIRECTION":"P","BUS_STOP_ORDER_NUM":9,"BUS_STOP_NUM_1":2,"Current_Stop":"Na Hlavnej","BUS_STOP_SUB_NUM_2":1,"BUS_STOP_NUM_2":3,"Next_Stop":"Veľká pošta","PLANNED_ROAD":555,"REAL_ROAD":317,"DELAY":18,"VEHICLE_NUMBER":380,"Current_Time":1615122008976,"Current_Day":7,"Current_Hour":14,"Current_Minutes":0,"Current_Seconds":8},{"lon":21.24984,"lat":48.98434,"ROUTE_NUMBER":38,"DIRECTION":"T","BUS_STOP_ORDER_NUM":7,"BUS_STOP_NUM_1":529,"Current_Stop":"Škára","BUS_STOP_SUB_NUM_2":0,"BUS_STOP_NUM_2":35,"Next_Stop":"Železničná stanica","PLANNED_ROAD":850,"REAL_ROAD":850,"DELAY":23,"VEHICLE_NUMBER":722,"Current_Time":1615122008976,"Current_Day":7,"Current_Hour":14,"Current_Minutes":0,"Current_Seconds":8},{"lon":21.22343,"lat":49.00191,"ROUTE_NUMBER":4,"DIRECTION":"P","BUS_STOP_ORDER_NUM":6,"BUS_STOP_NUM_1":188,"Current_Stop":"Volgogradská","BUS_STOP_SUB_NUM_2":1,"BUS_STOP_NUM_2":187,"Next_Stop":"Clementisova","PLANNED_ROAD":350,"REAL_ROAD":315,"DELAY":-120,"VEHICLE_NUMBER":725,"Current_Time":1615122008976,"Current_Day":7,"Current_Hour":14,"Current_Minutes":0,"Current_Seconds":8},{"lon":21.22218,"lat":49.01078,"ROUTE_NUMBER":8,"DIRECTION":"T","BUS_STOP_ORDER_NUM":17,"BUS_STOP_NUM_1":190,"Current_Stop":"VUKOV","BUS_STOP_SUB_NUM_2":0,"BUS_STOP_NUM_2":191,"Next_Stop":"Centrum","PLANNED_ROAD":730,"REAL_ROAD":19,"DELAY":122,"VEHICLE_NUMBER":727,"Current_Time":1615122023978,"Current_Day":7,"Current_Hour":14,"Current_Minutes":0,"Current_Seconds":23},{"lon":21.24748,"lat":48.98867,"ROUTE_NUMBER":1,"DIRECTION":"P","BUS_STOP_ORDER_NUM":11,"BUS_STOP_NUM_1":4,"Current_Stop":"Čierny most","BUS_STOP_SUB_NUM_2":1,"BUS_STOP_NUM_2":35,"Next_Stop":"Železničná stanica","PLANNED_ROAD":790,"REAL_ROAD":136,"DELAY":5,"VEHICLE_NUMBER":737,"Current_Time":1615121318706,"Current_Day":7,"Current_Hour":13,"Current_Minutes":48,"Current_Seconds":38},{"lon":21.24675,"lat":48.98993,"ROUTE_NUMBER":1,"DIRECTION":"T","BUS_STOP_ORDER_NUM":7,"BUS_STOP_NUM_1":4,"Current_Stop":"Čierny most","BUS_STOP_SUB_NUM_2":0,"BUS_STOP_NUM_2":205,"Next_Stop":"Divadlo Jonáša Záborského","PLANNED_ROAD":461,"REAL_ROAD":20,"DELAY":-71,"VEHICLE_NUMBER":739,"Current_Time":1615121318706,"Current_Day":7,"Current_Hour":13,"Current_Minutes":48,"Current_Seconds":38},{"lon":21.24466,"lat":49.00469,"ROUTE_NUMBER":12,"DIRECTION":"P","BUS_STOP_ORDER_NUM":23,"BUS_STOP_NUM_1":78,"Current_Stop":"Duklianska","BUS_STOP_SUB_NUM_2":0,"BUS_STOP_NUM_2":115,"Next_Stop":"Šafárikova, cintorín","PLANNED_ROAD":408,"REAL_ROAD":187,"DELAY":72,"VEHICLE_NUMBER":390,"Current_Time":1615121318706,"Current_Day":7,"Current_Hour":13,"Current_Minutes":48,"Current_Seconds":38},{"lon":21.24631,"lat":48.99039,"ROUTE_NUMBER":5,"DIRECTION":"P","BUS_STOP_ORDER_NUM":4,"BUS_STOP_NUM_1":3,"Current_Stop":"Veľká pošta","BUS_STOP_SUB_NUM_2":1,"BUS_STOP_NUM_2":4,"Next_Stop":"Čierny most","PLANNED_ROAD":220,"REAL_ROAD":140,"DELAY":13,"VEHICLE_NUMBER":396,"Current_Time":1615121318706,"Current_Day":7,"Current_Hour":13,"Current_Minutes":48,"Current_Seconds":38},{"lon":21.24723,"lat":48.9891,"ROUTE_NUMBER":5,"DIRECTION":"P","BUS_STOP_ORDER_NUM":5,"BUS_STOP_NUM_1":4,"Current_Stop":"Čierny most","BUS_STOP_SUB_NUM_2":1,"BUS_STOP_NUM_2":24,"Next_Stop":"Štúrova","PLANNED_ROAD":720,"REAL_ROAD":98,"DELAY":27,"VEHICLE_NUMBER":396,"Current_Time":1615121348706,"Current_Day":7,"Current_Hour":13,"Current_Minutes":49,"Current_Seconds":8},{"lon":21.23995,"lat":48.99899,"ROUTE_NUMBER":22,"DIRECTION":"P","BUS_STOP_ORDER_NUM":9,"BUS_STOP_NUM_1":1,"Current_Stop":"Trojica","BUS_STOP_SUB_NUM_2":1,"BUS_STOP_NUM_2":2,"Next_Stop":"Na Hlavnej","PLANNED_ROAD":394,"REAL_ROAD":42,"DELAY":8,"VEHICLE_NUMBER":385,"Current_Time":1615121363720,"Current_Day":7,"Current_Hour":13,"Current_Minutes":49,"Current_Seconds":23},{"lon":21.22723,"lat":48.99951,"ROUTE_NUMBER":38,"DIRECTION":"T","BUS_STOP_ORDER_NUM":13,"BUS_STOP_NUM_1":195,"Current_Stop":"Obrancov mieru","BUS_STOP_SUB_NUM_2":0,"BUS_STOP_NUM_2":187,"Next_Stop":"Clementisova","PLANNED_ROAD":510,"REAL_ROAD":180,"DELAY":-10,"VEHICLE_NUMBER":731,"Current_Time":1615121363720,"Current_Day":7,"Current_Hour":13,"Current_Minutes":49,"Current_Seconds":23},{"lon":21.23621,"lat":48.98919,"ROUTE_NUMBER":38,"DIRECTION":"P","BUS_STOP_ORDER_NUM":10,"BUS_STOP_NUM_1":199,"Current_Stop":"Prešovská univerzita","BUS_STOP_SUB_NUM_2":1,"BUS_STOP_NUM_2":25,"Next_Stop":"Škultétyho","PLANNED_ROAD":706,"REAL_ROAD":77,"DELAY":-52,"VEHICLE_NUMBER":744,"Current_Time":1615121363720,"Current_Day":7,"Current_Hour":13,"Current_Minutes":49,"Current_Seconds":23},{"lon":21.24391,"lat":48.99353,"ROUTE_NUMBER":1,"DIRECTION":"T","BUS_STOP_ORDER_NUM":8,"BUS_STOP_NUM_1":205,"Current_Stop":"Divadlo Jonáša Záborského","BUS_STOP_SUB_NUM_2":0,"BUS_STOP_NUM_2":2,"Next_Stop":"Na Hlavnej","PLANNED_ROAD":290,"REAL_ROAD":23,"DELAY":-17,"VEHICLE_NUMBER":739,"Current_Time":1615121378737,"Current_Day":7,"Current_Hour":13,"Current_Minutes":49,"Current_Seconds":38},{"lon":21.22916,"lat":48.98975,"ROUTE_NUMBER":15,"DIRECTION":"P","BUS_STOP_ORDER_NUM":5,"BUS_STOP_NUM_1":32,"Current_Stop":"Zimný štadión","BUS_STOP_SUB_NUM_2":0,"BUS_STOP_NUM_2":33,"Next_Stop":"Pod Kalváriou","PLANNED_ROAD":395,"REAL_ROAD":221,"DELAY":11,"VEHICLE_NUMBER":378,"Current_Time":1615121618812,"Current_Day":7,"Current_Hour":13,"Current_Minutes":53,"Current_Seconds":38},{"lon":21.23918,"lat":49.00066,"ROUTE_NUMBER":8,"DIRECTION":"P","BUS_STOP_ORDER_NUM":8,"BUS_STOP_NUM_1":156,"Current_Stop":"Poliklinika","BUS_STOP_SUB_NUM_2":1,"BUS_STOP_NUM_2":1,"Next_Stop":"Trojica","PLANNED_ROAD":530,"REAL_ROAD":361,"DELAY":-60,"VEHICLE_NUMBER":724,"Current_Time":1615121618812,"Current_Day":7,"Current_Hour":13,"Current_Minutes":53,"Current_Seconds":38},{"lon":21.24966,"lat":48.98469,"ROUTE_NUMBER":19,"DIRECTION":"T","BUS_STOP_ORDER_NUM":13,"BUS_STOP_NUM_1":35,"Current_Stop":"Železničná stanica","BUS_STOP_SUB_NUM_2":0,"BUS_STOP_NUM_2":4,"Next_Stop":"Čierny most","PLANNED_ROAD":650,"REAL_ROAD":65,"DELAY":-25,"VEHICLE_NUMBER":400,"Current_Time":1615121633813,"Current_Day":7,"Current_Hour":13,"Current_Minutes":53,"Current_Seconds":53},{"lon":21.23987,"lat":48.99906,"ROUTE_NUMBER":8,"DIRECTION":"P","BUS_STOP_ORDER_NUM":9,"BUS_STOP_NUM_1":1,"Current_Stop":"Trojica","BUS_STOP_SUB_NUM_2":1,"BUS_STOP_NUM_2":2,"Next_Stop":"Na Hlavnej","PLANNED_ROAD":394,"REAL_ROAD":17,"DELAY":-61,"VEHICLE_NUMBER":724,"Current_Time":1615121663829,"Current_Day":7,"Current_Hour":13,"Current_Minutes":54,"Current_Seconds":23},{"lon":21.23919,"lat":49.00053,"ROUTE_NUMBER":18,"DIRECTION":"T","BUS_STOP_ORDER_NUM":4,"BUS_STOP_NUM_1":1,"Current_Stop":"Trojica","BUS_STOP_SUB_NUM_2":0,"BUS_STOP_NUM_2":156,"Next_Stop":"Poliklinika","PLANNED_ROAD":640,"REAL_ROAD":40,"DELAY":-10,"VEHICLE_NUMBER":392,"Current_Time":1615121678844,"Current_Day":7,"Current_Hour":13,"Current_Minutes":54,"Current_Seconds":38},{"lon":21.22899,"lat":48.99285,"ROUTE_NUMBER":15,"DIRECTION":"P","BUS_STOP_ORDER_NUM":7,"BUS_STOP_NUM_1":182,"Current_Stop":"SOŠ lesnícka","BUS_STOP_SUB_NUM_2":0,"BUS_STOP_NUM_2":181,"Next_Stop":"Kollárova","PLANNED_ROAD":407,"REAL_ROAD":16,"DELAY":32,"VEHICLE_NUMBER":378,"Current_Time":1615121693843,"Current_Day":7,"Current_Hour":13,"Current_Minutes":54,"Current_Seconds":53},{"lon":21.23373,"lat":48.99214,"ROUTE_NUMBER":"5D","DIRECTION":"T","BUS_STOP_ORDER_NUM":2,"BUS_STOP_NUM_1":198,"Current_Stop":"Duchnovičovo nám.","BUS_STOP_SUB_NUM_2":1,"BUS_STOP_NUM_2":199,"Next_Stop":"Prešovská univerzita","PLANNED_ROAD":441,"REAL_ROAD":149,"DELAY":-76,"VEHICLE_NUMBER":733,"Current_Time":1615121693843,"Current_Day":7,"Current_Hour":13,"Current_Minutes":54,"Current_Seconds":53},{"lon":21.23326,"lat":49.00079,"ROUTE_NUMBER":8,"DIRECTION":"T","BUS_STOP_ORDER_NUM":12,"BUS_STOP_NUM_1":1,"Current_Stop":"Trojica","BUS_STOP_SUB_NUM_2":0,"BUS_STOP_NUM_2":156,"Next_Stop":"Poliklinika","PLANNED_ROAD":640,"REAL_ROAD":640,"DELAY":68,"VEHICLE_NUMBER":727,"Current_Time":1615121723875,"Current_Day":7,"Current_Hour":13,"Current_Minutes":55,"Current_Seconds":23},{"lon":21.19409,"lat":49.03923,"ROUTE_NUMBER":45,"DIRECTION":"T","BUS_STOP_ORDER_NUM":23,"BUS_STOP_NUM_1":155,"Current_Stop":"Nám.sv.Jakuba","BUS_STOP_SUB_NUM_2":0,"BUS_STOP_NUM_2":136,"Next_Stop":"Varoš","PLANNED_ROAD":378,"REAL_ROAD":22,"DELAY":1,"VEHICLE_NUMBER":367,"Current_Time":1615121723875,"Current_Day":7,"Current_Hour":13,"Current_Minutes":55,"Current_Seconds":23},{"lon":21.23075,"lat":49.00046,"ROUTE_NUMBER":8,"DIRECTION":"T","BUS_STOP_ORDER_NUM":13,"BUS_STOP_NUM_1":156,"Current_Stop":"Poliklinika","BUS_STOP_SUB_NUM_2":0,"BUS_STOP_NUM_2":187,"Next_Stop":"Clementisova","PLANNED_ROAD":760,"REAL_ROAD":187,"DELAY":83,"VEHICLE_NUMBER":727,"Current_Time":1615121738866,"Current_Day":7,"Current_Hour":13,"Current_Minutes":55,"Current_Seconds":38},{"lon":21.22467,"lat":49.00153,"ROUTE_NUMBER":8,"DIRECTION":"T","BUS_STOP_ORDER_NUM":13,"BUS_STOP_NUM_1":156,"Current_Stop":"Poliklinika","BUS_STOP_SUB_NUM_2":0,"BUS_STOP_NUM_2":187,"Next_Stop":"Clementisova","PLANNED_ROAD":760,"REAL_ROAD":737,"DELAY":121,"VEHICLE_NUMBER":727,"Current_Time":1615121828904,"Current_Day":7,"Current_Hour":13,"Current_Minutes":57,"Current_Seconds":8},{"lon":21.2456,"lat":48.99121,"ROUTE_NUMBER":8,"DIRECTION":"P","BUS_STOP_ORDER_NUM":11,"BUS_STOP_NUM_1":3,"Current_Stop":"Veľká pošta","BUS_STOP_SUB_NUM_2":1,"BUS_STOP_NUM_2":4,"Next_Stop":"Čierny most","PLANNED_ROAD":220,"REAL_ROAD":48,"DELAY":26,"VEHICLE_NUMBER":724,"Current_Time":1615121828904,"Current_Day":7,"Current_Hour":13,"Current_Minutes":57,"Current_Seconds":8},{"lon":21.22867,"lat":49.0235,"ROUTE_NUMBER":38,"DIRECTION":"P","BUS_STOP_ORDER_NUM":1,"BUS_STOP_NUM_1":193,"Current_Stop":"Sídlisko III","BUS_STOP_SUB_NUM_2":1,"BUS_STOP_NUM_2":192,"Next_Stop":"Prostějovská","PLANNED_ROAD":415,"REAL_ROAD":41,"DELAY":-155,"VEHICLE_NUMBER":741,"Current_Time":1615121933964,"Current_Day":7,"Current_Hour":13,"Current_Minutes":58,"Current_Seconds":53},{"lon":21.22703,"lat":48.99807,"ROUTE_NUMBER":15,"DIRECTION":"P","BUS_STOP_ORDER_NUM":11,"BUS_STOP_NUM_1":177,"Current_Stop":"Centrál","BUS_STOP_SUB_NUM_2":1,"BUS_STOP_NUM_2":156,"Next_Stop":"Poliklinika","PLANNED_ROAD":854,"REAL_ROAD":15,"DELAY":17,"VEHICLE_NUMBER":378,"Current_Time":1615121948963,"Current_Day":7,"Current_Hour":13,"Current_Minutes":59,"Current_Seconds":8},{"lon":21.21684,"lat":49.0292,"ROUTE_NUMBER":45,"DIRECTION":"T","BUS_STOP_ORDER_NUM":18,"BUS_STOP_NUM_1":131,"Current_Stop":"Bikoš","BUS_STOP_SUB_NUM_2":1,"BUS_STOP_NUM_2":530,"Next_Stop":"Šariš park","PLANNED_ROAD":1700,"REAL_ROAD":200,"DELAY":54,"VEHICLE_NUMBER":367,"Current_Time":1615121318706,"Current_Day":7,"Current_Hour":13,"Current_Minutes":48,"Current_Seconds":38},{"lon":21.22408,"lat":49.00173,"ROUTE_NUMBER":4,"DIRECTION":"T","BUS_STOP_ORDER_NUM":14,"BUS_STOP_NUM_1":187,"Current_Stop":"Clementisova","BUS_STOP_SUB_NUM_2":0,"BUS_STOP_NUM_2":188,"Next_Stop":"Volgogradská","PLANNED_ROAD":450,"REAL_ROAD":18,"DELAY":22,"VEHICLE_NUMBER":742,"Current_Time":1615121333705,"Current_Day":7,"Current_Hour":13,"Current_Minutes":48,"Current_Seconds":53},{"lon":21.22803,"lat":48.99817,"ROUTE_NUMBER":5,"DIRECTION":"P","BUS_STOP_ORDER_NUM":1,"BUS_STOP_NUM_1":195,"Current_Stop":"Obrancov mieru","BUS_STOP_SUB_NUM_2":1,"BUS_STOP_NUM_2":156,"Next_Stop":"Poliklinika","PLANNED_ROAD":850,"REAL_ROAD":0,"DELAY":-176,"VEHICLE_NUMBER":732,"Current_Time":1615121348706,"Current_Day":7,"Current_Hour":13,"Current_Minutes":49,"Current_Seconds":8},{"lon":21.22315,"lat":49.01618,"ROUTE_NUMBER":39,"DIRECTION":"P","BUS_STOP_ORDER_NUM":3,"BUS_STOP_NUM_1":191,"Current_Stop":"Centrum","BUS_STOP_SUB_NUM_2":1,"BUS_STOP_NUM_2":190,"Next_Stop":"VUKOV","PLANNED_ROAD":517,"REAL_ROAD":70,"DELAY":-33,"VEHICLE_NUMBER":380,"Current_Time":1615121348706,"Current_Day":7,"Current_Hour":13,"Current_Minutes":49,"Current_Seconds":8},{"lon":21.2468,"lat":48.98984,"ROUTE_NUMBER":8,"DIRECTION":"T","BUS_STOP_ORDER_NUM":9,"BUS_STOP_NUM_1":4,"Current_Stop":"Čierny most","BUS_STOP_SUB_NUM_2":0,"BUS_STOP_NUM_2":205,"Next_Stop":"Divadlo Jonáša Záborského","PLANNED_ROAD":461,"REAL_ROAD":20,"DELAY":-38,"VEHICLE_NUMBER":727,"Current_Time":1615121408736,"Current_Day":7,"Current_Hour":13,"Current_Minutes":50,"Current_Seconds":8},{"lon":21.24181,"lat":48.99596,"ROUTE_NUMBER":22,"DIRECTION":"P","BUS_STOP_ORDER_NUM":10,"BUS_STOP_NUM_1":2,"Current_Stop":"Na Hlavnej","BUS_STOP_SUB_NUM_2":1,"BUS_STOP_NUM_2":3,"Next_Stop":"Veľká pošta","PLANNED_ROAD":555,"REAL_ROAD":20,"DELAY":49,"VEHICLE_NUMBER":385,"Current_Time":1615121438745,"Current_Day":7,"Current_Hour":13,"Current_Minutes":50,"Current_Seconds":38},{"lon":21.24193,"lat":48.98656,"ROUTE_NUMBER":38,"DIRECTION":"P","BUS_STOP_ORDER_NUM":11,"BUS_STOP_NUM_1":25,"Current_Stop":"Škultétyho","BUS_STOP_SUB_NUM_2":1,"BUS_STOP_NUM_2":35,"Next_Stop":"Železničná stanica","PLANNED_ROAD":1110,"REAL_ROAD":26,"DELAY":-24,"VEHICLE_NUMBER":744,"Current_Time":1615121453736,"Current_Day":7,"Current_Hour":13,"Current_Minutes":50,"Current_Seconds":53},{"lon":21.24661,"lat":48.9901,"ROUTE_NUMBER":18,"DIRECTION":"T","BUS_STOP_ORDER_NUM":1,"BUS_STOP_NUM_1":4,"Current_Stop":"Čierny most","BUS_STOP_SUB_NUM_2":0,"BUS_STOP_NUM_2":205,"Next_Stop":"Divadlo Jonáša Záborského","PLANNED_ROAD":461,"REAL_ROAD":50,"DELAY":-95,"VEHICLE_NUMBER":392,"Current_Time":1615121468746,"Current_Day":7,"Current_Hour":13,"Current_Minutes":51,"Current_Seconds":8},{"lon":21.22753,"lat":48.98611,"ROUTE_NUMBER":15,"DIRECTION":"P","BUS_STOP_ORDER_NUM":3,"BUS_STOP_NUM_1":34,"Current_Stop":"Záhradkárska osada","BUS_STOP_SUB_NUM_2":0,"BUS_STOP_NUM_2":29,"Next_Stop":"Horárska","PLANNED_ROAD":408,"REAL_ROAD":408,"DELAY":62,"VEHICLE_NUMBER":378,"Current_Time":1615121483751,"Current_Day":7,"Current_Hour":13,"Current_Minutes":51,"Current_Seconds":23},{"lon":21.24342,"lat":48.98281,"ROUTE_NUMBER":5,"DIRECTION":"P","BUS_STOP_ORDER_NUM":6,"BUS_STOP_NUM_1":24,"Current_Stop":"Štúrova","BUS_STOP_SUB_NUM_2":1,"BUS_STOP_NUM_2":23,"Next_Stop":"Priemyselné centrum","PLANNED_ROAD":274,"REAL_ROAD":274,"DELAY":52,"VEHICLE_NUMBER":396,"Current_Time":1615121483751,"Current_Day":7,"Current_Hour":13,"Current_Minutes":51,"Current_Seconds":23},{"lon":21.22647,"lat":49.01111,"ROUTE_NUMBER":39,"DIRECTION":"P","BUS_STOP_ORDER_NUM":5,"BUS_STOP_NUM_1":153,"Current_Stop":"Mukačevská","BUS_STOP_SUB_NUM_2":1,"BUS_STOP_NUM_2":152,"Next_Stop":"Jazdecká","PLANNED_ROAD":659,"REAL_ROAD":23,"DELAY":4,"VEHICLE_NUMBER":380,"Current_Time":1615121483751,"Current_Day":7,"Current_Hour":13,"Current_Minutes":51,"Current_Seconds":23},{"lon":21.20484,"lat":49.04219,"ROUTE_NUMBER":45,"DIRECTION":"T","BUS_STOP_ORDER_NUM":20,"BUS_STOP_NUM_1":133,"Current_Stop":"Pivovar","BUS_STOP_SUB_NUM_2":0,"BUS_STOP_NUM_2":134,"Next_Stop":"Staničná","PLANNED_ROAD":412,"REAL_ROAD":263,"DELAY":91,"VEHICLE_NUMBER":367,"Current_Time":1615121483751,"Current_Day":7,"Current_Hour":13,"Current_Minutes":51,"Current_Seconds":23},{"lon":21.22226,"lat":49.01076,"ROUTE_NUMBER":4,"DIRECTION":"T","BUS_STOP_ORDER_NUM":17,"BUS_STOP_NUM_1":190,"Current_Stop":"VUKOV","BUS_STOP_SUB_NUM_2":0,"BUS_STOP_NUM_2":191,"Next_Stop":"Centrum","PLANNED_ROAD":730,"REAL_ROAD":19,"DELAY":46,"VEHICLE_NUMBER":742,"Current_Time":1615121498765,"Current_Day":7,"Current_Hour":13,"Current_Minutes":51,"Current_Seconds":38},{"lon":21.23258,"lat":49.00063,"ROUTE_NUMBER":8,"DIRECTION":"P","BUS_STOP_ORDER_NUM":7,"BUS_STOP_NUM_1":187,"Current_Stop":"Clementisova","BUS_STOP_SUB_NUM_2":1,"BUS_STOP_NUM_2":156,"Next_Stop":"Poliklinika","PLANNED_ROAD":1005,"REAL_ROAD":756,"DELAY":-76,"VEHICLE_NUMBER":724,"Current_Time":1615121498765,"Current_Day":7,"Current_Hour":13,"Current_Minutes":51,"Current_Seconds":38},{"lon":21.23949,"lat":48.99975,"ROUTE_NUMBER":5,"DIRECTION":"P","BUS_STOP_ORDER_NUM":2,"BUS_STOP_NUM_1":156,"Current_Stop":"Poliklinika","BUS_STOP_SUB_NUM_2":1,"BUS_STOP_NUM_2":1,"Next_Stop":"Trojica","PLANNED_ROAD":530,"REAL_ROAD":452,"DELAY":-83,"VEHICLE_NUMBER":732,"Current_Time":1615121528770,"Current_Day":7,"Current_Hour":13,"Current_Minutes":52,"Current_Seconds":8},{"lon":21.24437,"lat":48.97769,"ROUTE_NUMBER":5,"DIRECTION":"P","BUS_STOP_ORDER_NUM":8,"BUS_STOP_NUM_1":22,"Current_Stop":"Pekárne","BUS_STOP_SUB_NUM_2":0,"BUS_STOP_NUM_2":21,"Next_Stop":"Budovateľská","PLANNED_ROAD":266,"REAL_ROAD":117,"DELAY":93,"VEHICLE_NUMBER":396,"Current_Time":1615121528770,"Current_Day":7,"Current_Hour":13,"Current_Minutes":52,"Current_Seconds":8},{"lon":21.24889,"lat":48.99405,"ROUTE_NUMBER":12,"DIRECTION":"P","BUS_STOP_ORDER_NUM":26,"BUS_STOP_NUM_1":117,"Current_Stop":"Fakultná nemocnica","BUS_STOP_SUB_NUM_2":1,"BUS_STOP_NUM_2":121,"Next_Stop":"Lesík delostrelcov","PLANNED_ROAD":730,"REAL_ROAD":457,"DELAY":73,"VEHICLE_NUMBER":390,"Current_Time":1615121543771,"Current_Day":7,"Current_Hour":13,"Current_Minutes":52,"Current_Seconds":23},{"lon":21.24194,"lat":48.99591,"ROUTE_NUMBER":18,"DIRECTION":"T","BUS_STOP_ORDER_NUM":3,"BUS_STOP_NUM_1":2,"Current_Stop":"Na Hlavnej","BUS_STOP_SUB_NUM_2":0,"BUS_STOP_NUM_2":1,"Next_Stop":"Trojica","PLANNED_ROAD":560,"REAL_ROAD":35,"DELAY":-60,"VEHICLE_NUMBER":392,"Current_Time":1615121618812,"Current_Day":7,"Current_Hour":13,"Current_Minutes":53,"Current_Seconds":38},{"lon":21.22495,"lat":49.02106,"ROUTE_NUMBER":4,"DIRECTION":"T","BUS_STOP_ORDER_NUM":19,"BUS_STOP_NUM_1":192,"Current_Stop":"Prostějovská","BUS_STOP_SUB_NUM_2":2,"BUS_STOP_NUM_2":193,"Next_Stop":"Sídlisko III","PLANNED_ROAD":422,"REAL_ROAD":16,"DELAY":85,"VEHICLE_NUMBER":742,"Current_Time":1615121633813,"Current_Day":7,"Current_Hour":13,"Current_Minutes":53,"Current_Seconds":53},{"lon":21.24683,"lat":48.98976,"ROUTE_NUMBER":19,"DIRECTION":"T","BUS_STOP_ORDER_NUM":14,"BUS_STOP_NUM_1":4,"Current_Stop":"Čierny most","BUS_STOP_SUB_NUM_2":1,"BUS_STOP_NUM_2":114,"Next_Stop":"Grešova","PLANNED_ROAD":500,"REAL_ROAD":27,"DELAY":-42,"VEHICLE_NUMBER":400,"Current_Time":1615121768879,"Current_Day":7,"Current_Hour":13,"Current_Minutes":56,"Current_Seconds":8},{"lon":21.22144,"lat":49.00685,"ROUTE_NUMBER":8,"DIRECTION":"T","BUS_STOP_ORDER_NUM":16,"BUS_STOP_NUM_1":189,"Current_Stop":"Nám.Kráľ.pokoja","BUS_STOP_SUB_NUM_2":0,"BUS_STOP_NUM_2":190,"Next_Stop":"VUKOV","PLANNED_ROAD":438,"REAL_ROAD":17,"DELAY":118,"VEHICLE_NUMBER":727,"Current_Time":1615121963970,"Current_Day":7,"Current_Hour":13,"Current_Minutes":59,"Current_Seconds":23},{"lon":21.24787,"lat":48.9881,"ROUTE_NUMBER":8,"DIRECTION":"P","BUS_STOP_ORDER_NUM":12,"BUS_STOP_NUM_1":4,"Current_Stop":"Čierny most","BUS_STOP_SUB_NUM_2":1,"BUS_STOP_NUM_2":35,"Next_Stop":"Železničná stanica","PLANNED_ROAD":790,"REAL_ROAD":215,"DELAY":-35,"VEHICLE_NUMBER":724,"Current_Time":1615121963970,"Current_Day":7,"Current_Hour":13,"Current_Minutes":59,"Current_Seconds":23},{"lon":21.24684,"lat":48.98983,"ROUTE_NUMBER":"5D","DIRECTION":"T","BUS_STOP_ORDER_NUM":5,"BUS_STOP_NUM_1":4,"Current_Stop":"Čierny most","BUS_STOP_SUB_NUM_2":0,"BUS_STOP_NUM_2":205,"Next_Stop":"Divadlo Jonáša Záborského","PLANNED_ROAD":461,"REAL_ROAD":16,"DELAY":-84,"VEHICLE_NUMBER":733,"Current_Time":1615121993977,"Current_Day":7,"Current_Hour":13,"Current_Minutes":59,"Current_Seconds":53},{"lon":21.21135,"lat":49.00165,"ROUTE_NUMBER":18,"DIRECTION":"T","BUS_STOP_ORDER_NUM":7,"BUS_STOP_NUM_1":158,"Current_Stop":"Mýto","BUS_STOP_SUB_NUM_2":1,"BUS_STOP_NUM_2":154,"Next_Stop":"Rázc. Cemjata","PLANNED_ROAD":800,"REAL_ROAD":176,"DELAY":32,"VEHICLE_NUMBER":392,"Current_Time":1615122008976,"Current_Day":7,"Current_Hour":14,"Current_Minutes":0,"Current_Seconds":8},{"lon":21.24308,"lat":49.00326,"ROUTE_NUMBER":21,"DIRECTION":"T","BUS_STOP_ORDER_NUM":15,"BUS_STOP_NUM_1":79,"Current_Stop":"Rázcestie Kúty","BUS_STOP_SUB_NUM_2":1,"BUS_STOP_NUM_2":78,"Next_Stop":"Duklianska","PLANNED_ROAD":903,"REAL_ROAD":747,"DELAY":-79,"VEHICLE_NUMBER":386,"Current_Time":1615122008976,"Current_Day":7,"Current_Hour":14,"Current_Minutes":0,"Current_Seconds":8},{"lon":21.24872,"lat":48.98703,"ROUTE_NUMBER":4,"DIRECTION":"T","BUS_STOP_ORDER_NUM":8,"BUS_STOP_NUM_1":35,"Current_Stop":"Železničná stanica","BUS_STOP_SUB_NUM_2":0,"BUS_STOP_NUM_2":4,"Next_Stop":"Čierny most","PLANNED_ROAD":650,"REAL_ROAD":313,"DELAY":-117,"VEHICLE_NUMBER":723,"Current_Time":1615122008976,"Current_Day":7,"Current_Hour":14,"Current_Minutes":0,"Current_Seconds":8},{"lon":21.22345,"lat":49.0178,"ROUTE_NUMBER":39,"DIRECTION":"P","BUS_STOP_ORDER_NUM":2,"BUS_STOP_NUM_1":192,"Current_Stop":"Prostějovská","BUS_STOP_SUB_NUM_2":1,"BUS_STOP_NUM_2":191,"Next_Stop":"Centrum","PLANNED_ROAD":451,"REAL_ROAD":324,"DELAY":-26,"VEHICLE_NUMBER":380,"Current_Time":1615121303691,"Current_Day":7,"Current_Hour":13,"Current_Minutes":48,"Current_Seconds":23},{"lon":21.22794,"lat":48.9982,"ROUTE_NUMBER":38,"DIRECTION":"T","BUS_STOP_ORDER_NUM":13,"BUS_STOP_NUM_1":195,"Current_Stop":"Obrancov mieru","BUS_STOP_SUB_NUM_2":0,"BUS_STOP_NUM_2":187,"Next_Stop":"Clementisova","PLANNED_ROAD":510,"REAL_ROAD":23,"DELAY":3,"VEHICLE_NUMBER":731,"Current_Time":1615121303691,"Current_Day":7,"Current_Hour":13,"Current_Minutes":48,"Current_Seconds":23},{"lon":21.24969,"lat":48.98451,"ROUTE_NUMBER":8,"DIRECTION":"T","BUS_STOP_ORDER_NUM":8,"BUS_STOP_NUM_1":35,"Current_Stop":"Železničná stanica","BUS_STOP_SUB_NUM_2":0,"BUS_STOP_NUM_2":4,"Next_Stop":"Čierny most","PLANNED_ROAD":650,"REAL_ROAD":23,"DELAY":-48,"VEHICLE_NUMBER":727,"Current_Time":1615121303691,"Current_Day":7,"Current_Hour":13,"Current_Minutes":48,"Current_Seconds":23},{"lon":21.2269,"lat":48.98639,"ROUTE_NUMBER":27,"DIRECTION":"P","BUS_STOP_ORDER_NUM":13,"BUS_STOP_NUM_1":514,"Current_Stop":"Slávičia ","BUS_STOP_SUB_NUM_2":1,"BUS_STOP_NUM_2":540,"Next_Stop":"Ku Brezinám","PLANNED_ROAD":185,"REAL_ROAD":29,"DELAY":38,"VEHICLE_NUMBER":389,"Current_Time":1615121333705,"Current_Day":7,"Current_Hour":13,"Current_Minutes":48,"Current_Seconds":53},{"lon":21.24783,"lat":48.98836,"ROUTE_NUMBER":8,"DIRECTION":"T","BUS_STOP_ORDER_NUM":8,"BUS_STOP_NUM_1":35,"Current_Stop":"Železničná stanica","BUS_STOP_SUB_NUM_2":0,"BUS_STOP_NUM_2":4,"Next_Stop":"Čierny most","PLANNED_ROAD":650,"REAL_ROAD":472,"DELAY":-28,"VEHICLE_NUMBER":727,"Current_Time":1615121348706,"Current_Day":7,"Current_Hour":13,"Current_Minutes":49,"Current_Seconds":8},{"lon":21.22076,"lat":49.00282,"ROUTE_NUMBER":8,"DIRECTION":"P","BUS_STOP_ORDER_NUM":6,"BUS_STOP_NUM_1":188,"Current_Stop":"Volgogradská","BUS_STOP_SUB_NUM_2":1,"BUS_STOP_NUM_2":187,"Next_Stop":"Clementisova","PLANNED_ROAD":350,"REAL_ROAD":91,"DELAY":-96,"VEHICLE_NUMBER":724,"Current_Time":1615121348706,"Current_Day":7,"Current_Hour":13,"Current_Minutes":49,"Current_Seconds":8},{"lon":21.24975,"lat":48.98376,"ROUTE_NUMBER":1,"DIRECTION":"P","BUS_STOP_ORDER_NUM":11,"BUS_STOP_NUM_1":4,"Current_Stop":"Čierny most","BUS_STOP_SUB_NUM_2":1,"BUS_STOP_NUM_2":35,"Next_Stop":"Železničná stanica","PLANNED_ROAD":790,"REAL_ROAD":711,"DELAY":27,"VEHICLE_NUMBER":737,"Current_Time":1615121378737,"Current_Day":7,"Current_Hour":13,"Current_Minutes":49,"Current_Seconds":38},{"lon":21.23923,"lat":49.00042,"ROUTE_NUMBER":8,"DIRECTION":"T","BUS_STOP_ORDER_NUM":12,"BUS_STOP_NUM_1":1,"Current_Stop":"Trojica","BUS_STOP_SUB_NUM_2":0,"BUS_STOP_NUM_2":156,"Next_Stop":"Poliklinika","PLANNED_ROAD":640,"REAL_ROAD":23,"DELAY":50,"VEHICLE_NUMBER":727,"Current_Time":1615121618812,"Current_Day":7,"Current_Hour":13,"Current_Minutes":53,"Current_Seconds":38},{"lon":21.23717,"lat":49.00129,"ROUTE_NUMBER":8,"DIRECTION":"T","BUS_STOP_ORDER_NUM":12,"BUS_STOP_NUM_1":1,"Current_Stop":"Trojica","BUS_STOP_SUB_NUM_2":0,"BUS_STOP_NUM_2":156,"Next_Stop":"Poliklinika","PLANNED_ROAD":640,"REAL_ROAD":337,"DELAY":63,"VEHICLE_NUMBER":727,"Current_Time":1615121663829,"Current_Day":7,"Current_Hour":13,"Current_Minutes":54,"Current_Seconds":23},{"lon":21.22346,"lat":49.01725,"ROUTE_NUMBER":38,"DIRECTION":"T","BUS_STOP_ORDER_NUM":18,"BUS_STOP_NUM_1":191,"Current_Stop":"Centrum","BUS_STOP_SUB_NUM_2":0,"BUS_STOP_NUM_2":192,"Next_Stop":"Prostějovská","PLANNED_ROAD":457,"REAL_ROAD":18,"DELAY":51,"VEHICLE_NUMBER":731,"Current_Time":1615121678844,"Current_Day":7,"Current_Hour":13,"Current_Minutes":54,"Current_Seconds":38},{"lon":21.22432,"lat":49.0206,"ROUTE_NUMBER":4,"DIRECTION":"P","BUS_STOP_ORDER_NUM":2,"BUS_STOP_NUM_1":192,"Current_Stop":"Prostějovská","BUS_STOP_SUB_NUM_2":1,"BUS_STOP_NUM_2":191,"Next_Stop":"Centrum","PLANNED_ROAD":451,"REAL_ROAD":18,"DELAY":-196,"VEHICLE_NUMBER":725,"Current_Time":1615121738866,"Current_Day":7,"Current_Hour":13,"Current_Minutes":55,"Current_Seconds":38},{"lon":21.22231,"lat":49.01202,"ROUTE_NUMBER":4,"DIRECTION":"P","BUS_STOP_ORDER_NUM":4,"BUS_STOP_NUM_1":190,"Current_Stop":"VUKOV","BUS_STOP_SUB_NUM_2":1,"BUS_STOP_NUM_2":189,"Next_Stop":"Nám.Kráľ.pokoja","PLANNED_ROAD":585,"REAL_ROAD":11,"DELAY":-130,"VEHICLE_NUMBER":725,"Current_Time":1615121858925,"Current_Day":7,"Current_Hour":13,"Current_Minutes":57,"Current_Seconds":38},{"lon":21.22113,"lat":49.0028,"ROUTE_NUMBER":8,"DIRECTION":"T","BUS_STOP_ORDER_NUM":14,"BUS_STOP_NUM_1":187,"Current_Stop":"Clementisova","BUS_STOP_SUB_NUM_2":0,"BUS_STOP_NUM_2":188,"Next_Stop":"Volgogradská","PLANNED_ROAD":450,"REAL_ROAD":279,"DELAY":118,"VEHICLE_NUMBER":727,"Current_Time":1615121873934,"Current_Day":7,"Current_Hour":13,"Current_Minutes":57,"Current_Seconds":53},{"lon":21.22276,"lat":49.00115,"ROUTE_NUMBER":18,"DIRECTION":"T","BUS_STOP_ORDER_NUM":6,"BUS_STOP_NUM_1":157,"Current_Stop":"Levočská","BUS_STOP_SUB_NUM_2":0,"BUS_STOP_NUM_2":158,"Next_Stop":"Mýto","PLANNED_ROAD":805,"REAL_ROAD":21,"DELAY":1,"VEHICLE_NUMBER":392,"Current_Time":1615121903943,"Current_Day":7,"Current_Hour":13,"Current_Minutes":58,"Current_Seconds":23},{"lon":21.22519,"lat":48.99763,"ROUTE_NUMBER":15,"DIRECTION":"P","BUS_STOP_ORDER_NUM":10,"BUS_STOP_NUM_1":179,"Current_Stop":"Odborárska","BUS_STOP_SUB_NUM_2":1,"BUS_STOP_NUM_2":177,"Next_Stop":"Centrál","PLANNED_ROAD":419,"REAL_ROAD":234,"DELAY":17,"VEHICLE_NUMBER":378,"Current_Time":1615121918949,"Current_Day":7,"Current_Hour":13,"Current_Minutes":58,"Current_Seconds":38},{"lon":21.24882,"lat":49.00768,"ROUTE_NUMBER":21,"DIRECTION":"T","BUS_STOP_ORDER_NUM":14,"BUS_STOP_NUM_1":80,"Current_Stop":"Dopravný podnik","BUS_STOP_SUB_NUM_2":1,"BUS_STOP_NUM_2":79,"Next_Stop":"Rázcestie Kúty","PLANNED_ROAD":563,"REAL_ROAD":563,"DELAY":-79,"VEHICLE_NUMBER":386,"Current_Time":1615121918949,"Current_Day":7,"Current_Hour":13,"Current_Minutes":58,"Current_Seconds":38},{"lon":21.24976,"lat":48.98441,"ROUTE_NUMBER":4,"DIRECTION":"T","BUS_STOP_ORDER_NUM":7,"BUS_STOP_NUM_1":529,"Current_Stop":"Škára","BUS_STOP_SUB_NUM_2":0,"BUS_STOP_NUM_2":35,"Next_Stop":"Železničná stanica","PLANNED_ROAD":850,"REAL_ROAD":850,"DELAY":-127,"VEHICLE_NUMBER":723,"Current_Time":1615121963970,"Current_Day":7,"Current_Hour":13,"Current_Minutes":59,"Current_Seconds":23},{"lon":21.24984,"lat":48.98434,"ROUTE_NUMBER":38,"DIRECTION":"T","BUS_STOP_ORDER_NUM":7,"BUS_STOP_NUM_1":529,"Current_Stop":"Škára","BUS_STOP_SUB_NUM_2":0,"BUS_STOP_NUM_2":35,"Next_Stop":"Železničná stanica","PLANNED_ROAD":850,"REAL_ROAD":850,"DELAY":34,"VEHICLE_NUMBER":722,"Current_Time":1615121993977,"Current_Day":7,"Current_Hour":13,"Current_Minutes":59,"Current_Seconds":53},{"lon":21.22215,"lat":49.0106,"ROUTE_NUMBER":8,"DIRECTION":"T","BUS_STOP_ORDER_NUM":16,"BUS_STOP_NUM_1":189,"Current_Stop":"Nám.Kráľ.pokoja","BUS_STOP_SUB_NUM_2":0,"BUS_STOP_NUM_2":190,"Next_Stop":"VUKOV","PLANNED_ROAD":438,"REAL_ROAD":438,"DELAY":135,"VEHICLE_NUMBER":727,"Current_Time":1615122008976,"Current_Day":7,"Current_Hour":14,"Current_Minutes":0,"Current_Seconds":8},{"lon":21.24625,"lat":48.99058,"ROUTE_NUMBER":"5D","DIRECTION":"T","BUS_STOP_ORDER_NUM":5,"BUS_STOP_NUM_1":4,"Current_Stop":"Čierny most","BUS_STOP_SUB_NUM_2":0,"BUS_STOP_NUM_2":205,"Next_Stop":"Divadlo Jonáša Záborského","PLANNED_ROAD":461,"REAL_ROAD":108,"DELAY":-76,"VEHICLE_NUMBER":733,"Current_Time":1615122008976,"Current_Day":7,"Current_Hour":14,"Current_Minutes":0,"Current_Seconds":8},{"lon":21.24976,"lat":48.98381,"ROUTE_NUMBER":8,"DIRECTION":"P","BUS_STOP_ORDER_NUM":12,"BUS_STOP_NUM_1":4,"Current_Stop":"Čierny most","BUS_STOP_SUB_NUM_2":1,"BUS_STOP_NUM_2":35,"Next_Stop":"Železničná stanica","PLANNED_ROAD":790,"REAL_ROAD":718,"DELAY":-12,"VEHICLE_NUMBER":724,"Current_Time":1615122008976,"Current_Day":7,"Current_Hour":14,"Current_Minutes":0,"Current_Seconds":8},{"lon":21.22418,"lat":49.0204,"ROUTE_NUMBER":38,"DIRECTION":"P","BUS_STOP_ORDER_NUM":2,"BUS_STOP_NUM_1":192,"Current_Stop":"Prostějovská","BUS_STOP_SUB_NUM_2":1,"BUS_STOP_NUM_2":191,"Next_Stop":"Centrum","PLANNED_ROAD":451,"REAL_ROAD":36,"DELAY":-171,"VEHICLE_NUMBER":741,"Current_Time":1615122008976,"Current_Day":7,"Current_Hour":14,"Current_Minutes":0,"Current_Seconds":8},{"lon":21.22141,"lat":49.00697,"ROUTE_NUMBER":8,"DIRECTION":"P","BUS_STOP_ORDER_NUM":4,"BUS_STOP_NUM_1":190,"Current_Stop":"VUKOV","BUS_STOP_SUB_NUM_2":1,"BUS_STOP_NUM_2":189,"Next_Stop":"Nám.Kráľ.pokoja","PLANNED_ROAD":585,"REAL_ROAD":585,"DELAY":-88,"VEHICLE_NUMBER":724,"Current_Time":1615121273690,"Current_Day":7,"Current_Hour":13,"Current_Minutes":47,"Current_Seconds":53},{"lon":21.22807,"lat":48.99804,"ROUTE_NUMBER":38,"DIRECTION":"T","BUS_STOP_ORDER_NUM":12,"BUS_STOP_NUM_1":197,"Current_Stop":"Nám.mládeže","BUS_STOP_SUB_NUM_2":2,"BUS_STOP_NUM_2":195,"Next_Stop":"Obrancov mieru","PLANNED_ROAD":305,"REAL_ROAD":305,"DELAY":13,"VEHICLE_NUMBER":731,"Current_Time":1615121288676,"Current_Day":7,"Current_Hour":13,"Current_Minutes":48,"Current_Seconds":8},{"lon":21.24981,"lat":48.98434,"ROUTE_NUMBER":8,"DIRECTION":"T","BUS_STOP_ORDER_NUM":7,"BUS_STOP_NUM_1":529,"Current_Stop":"Škára","BUS_STOP_SUB_NUM_2":0,"BUS_STOP_NUM_2":35,"Next_Stop":"Železničná stanica","PLANNED_ROAD":850,"REAL_ROAD":850,"DELAY":-38,"VEHICLE_NUMBER":727,"Current_Time":1615121288676,"Current_Day":7,"Current_Hour":13,"Current_Minutes":48,"Current_Seconds":8},{"lon":21.22126,"lat":49.00599,"ROUTE_NUMBER":8,"DIRECTION":"P","BUS_STOP_ORDER_NUM":5,"BUS_STOP_NUM_1":189,"Current_Stop":"Nám.Kráľ.pokoja","BUS_STOP_SUB_NUM_2":1,"BUS_STOP_NUM_2":188,"Next_Stop":"Volgogradská","PLANNED_ROAD":387,"REAL_ROAD":116,"DELAY":-99,"VEHICLE_NUMBER":724,"Current_Time":1615121288676,"Current_Day":7,"Current_Hour":13,"Current_Minutes":48,"Current_Seconds":8},{"lon":21.23337,"lat":48.99256,"ROUTE_NUMBER":38,"DIRECTION":"P","BUS_STOP_ORDER_NUM":9,"BUS_STOP_NUM_1":198,"Current_Stop":"Duchnovičovo nám.","BUS_STOP_SUB_NUM_2":1,"BUS_STOP_NUM_2":199,"Next_Stop":"Prešovská univerzita","PLANNED_ROAD":441,"REAL_ROAD":105,"DELAY":-42,"VEHICLE_NUMBER":744,"Current_Time":1615121288676,"Current_Day":7,"Current_Hour":13,"Current_Minutes":48,"Current_Seconds":8},{"lon":21.24981,"lat":48.98434,"ROUTE_NUMBER":8,"DIRECTION":"T","BUS_STOP_ORDER_NUM":7,"BUS_STOP_NUM_1":529,"Current_Stop":"Škára","BUS_STOP_SUB_NUM_2":0,"BUS_STOP_NUM_2":35,"Next_Stop":"Železničná stanica","PLANNED_ROAD":850,"REAL_ROAD":850,"DELAY":-36,"VEHICLE_NUMBER":727,"Current_Time":1615121273690,"Current_Day":7,"Current_Hour":13,"Current_Minutes":47,"Current_Seconds":53},{"lon":21.22787,"lat":49.02747,"ROUTE_NUMBER":45,"DIRECTION":"T","BUS_STOP_ORDER_NUM":17,"BUS_STOP_NUM_1":130,"Current_Stop":"Dúbrava","BUS_STOP_SUB_NUM_2":0,"BUS_STOP_NUM_2":131,"Next_Stop":"Bikoš","PLANNED_ROAD":1130,"REAL_ROAD":406,"DELAY":50,"VEHICLE_NUMBER":367,"Current_Time":1615121273690,"Current_Day":7,"Current_Hour":13,"Current_Minutes":47,"Current_Seconds":53},{"lon":21.2478,"lat":48.98842,"ROUTE_NUMBER":4,"DIRECTION":"T","BUS_STOP_ORDER_NUM":8,"BUS_STOP_NUM_1":35,"Current_Stop":"Železničná stanica","BUS_STOP_SUB_NUM_2":0,"BUS_STOP_NUM_2":4,"Next_Stop":"Čierny most","PLANNED_ROAD":650,"REAL_ROAD":484,"DELAY":-115,"VEHICLE_NUMBER":723,"Current_Time":1615122038993,"Current_Day":7,"Current_Hour":14,"Current_Minutes":0,"Current_Seconds":38},{"lon":21.22414,"lat":49.00166,"ROUTE_NUMBER":4,"DIRECTION":"P","BUS_STOP_ORDER_NUM":7,"BUS_STOP_NUM_1":187,"Current_Stop":"Clementisova","BUS_STOP_SUB_NUM_2":1,"BUS_STOP_NUM_2":156,"Next_Stop":"Poliklinika","PLANNED_ROAD":1005,"REAL_ROAD":17,"DELAY":-131,"VEHICLE_NUMBER":725,"Current_Time":1615122038993,"Current_Day":7,"Current_Hour":14,"Current_Minutes":0,"Current_Seconds":38},{"lon":21.2234,"lat":49.01709,"ROUTE_NUMBER":8,"DIRECTION":"T","BUS_STOP_ORDER_NUM":17,"BUS_STOP_NUM_1":190,"Current_Stop":"VUKOV","BUS_STOP_SUB_NUM_2":0,"BUS_STOP_NUM_2":191,"Next_Stop":"Centrum","PLANNED_ROAD":730,"REAL_ROAD":730,"DELAY":178,"VEHICLE_NUMBER":727,"Current_Time":1615122084024,"Current_Day":7,"Current_Hour":14,"Current_Minutes":1,"Current_Seconds":24},{"lon":21.22842,"lat":49.0234,"ROUTE_NUMBER":8,"DIRECTION":"P","BUS_STOP_ORDER_NUM":1,"BUS_STOP_NUM_1":193,"Current_Stop":"Sídlisko III","BUS_STOP_SUB_NUM_2":1,"BUS_STOP_NUM_2":192,"Next_Stop":"Prostějovská","PLANNED_ROAD":415,"REAL_ROAD":49,"DELAY":-13,"VEHICLE_NUMBER":742,"Current_Time":1615122099025,"Current_Day":7,"Current_Hour":14,"Current_Minutes":1,"Current_Seconds":39},{"lon":21.24692,"lat":48.9896,"ROUTE_NUMBER":39,"DIRECTION":"P","BUS_STOP_ORDER_NUM":11,"BUS_STOP_NUM_1":4,"Current_Stop":"Čierny most","BUS_STOP_SUB_NUM_2":1,"BUS_STOP_NUM_2":35,"Next_Stop":"Železničná stanica","PLANNED_ROAD":790,"REAL_ROAD":35,"DELAY":27,"VEHICLE_NUMBER":380,"Current_Time":1615122129040,"Current_Day":7,"Current_Hour":14,"Current_Minutes":2,"Current_Seconds":9},{"lon":21.24674,"lat":48.98997,"ROUTE_NUMBER":4,"DIRECTION":"T","BUS_STOP_ORDER_NUM":9,"BUS_STOP_NUM_1":4,"Current_Stop":"Čierny most","BUS_STOP_SUB_NUM_2":0,"BUS_STOP_NUM_2":205,"Next_Stop":"Divadlo Jonáša Záborského","PLANNED_ROAD":461,"REAL_ROAD":33,"DELAY":-153,"VEHICLE_NUMBER":723,"Current_Time":1615122129040,"Current_Day":7,"Current_Hour":14,"Current_Minutes":2,"Current_Seconds":9},{"lon":21.24191,"lat":48.99595,"ROUTE_NUMBER":"5D","DIRECTION":"T","BUS_STOP_ORDER_NUM":7,"BUS_STOP_NUM_1":2,"Current_Stop":"Na Hlavnej","BUS_STOP_SUB_NUM_2":0,"BUS_STOP_NUM_2":1,"Next_Stop":"Trojica","PLANNED_ROAD":560,"REAL_ROAD":40,"DELAY":-40,"VEHICLE_NUMBER":733,"Current_Time":1615122129040,"Current_Day":7,"Current_Hour":14,"Current_Minutes":2,"Current_Seconds":9},{"lon":21.24752,"lat":48.99942,"ROUTE_NUMBER":10,"DIRECTION":"P","BUS_STOP_ORDER_NUM":3,"BUS_STOP_NUM_1":118,"Current_Stop":"Dilongova","BUS_STOP_SUB_NUM_2":0,"BUS_STOP_NUM_2":119,"Next_Stop":"Sládkovičova","PLANNED_ROAD":281,"REAL_ROAD":39,"DELAY":2,"VEHICLE_NUMBER":400,"Current_Time":1615122144046,"Current_Day":7,"Current_Hour":14,"Current_Minutes":2,"Current_Seconds":24},{"lon":21.22438,"lat":49.02075,"ROUTE_NUMBER":8,"DIRECTION":"P","BUS_STOP_ORDER_NUM":1,"BUS_STOP_NUM_1":193,"Current_Stop":"Sídlisko III","BUS_STOP_SUB_NUM_2":1,"BUS_STOP_NUM_2":192,"Next_Stop":"Prostějovská","PLANNED_ROAD":415,"REAL_ROAD":415,"DELAY":-21,"VEHICLE_NUMBER":742,"Current_Time":1615122159054,"Current_Day":7,"Current_Hour":14,"Current_Minutes":2,"Current_Seconds":39},{"lon":21.23984,"lat":48.99905,"ROUTE_NUMBER":23,"DIRECTION":"P","BUS_STOP_ORDER_NUM":1,"BUS_STOP_NUM_1":1,"Current_Stop":"Trojica","BUS_STOP_SUB_NUM_2":1,"BUS_STOP_NUM_2":2,"Next_Stop":"Na Hlavnej","PLANNED_ROAD":394,"REAL_ROAD":0,"DELAY":-89,"VEHICLE_NUMBER":386,"Current_Time":1615122174060,"Current_Day":7,"Current_Hour":14,"Current_Minutes":2,"Current_Seconds":54},{"lon":21.19717,"lat":48.99239,"ROUTE_NUMBER":18,"DIRECTION":"T","BUS_STOP_ORDER_NUM":9,"BUS_STOP_NUM_1":167,"Current_Stop":"Vydumanec","BUS_STOP_SUB_NUM_2":0,"BUS_STOP_NUM_2":168,"Next_Stop":"Kvašná voda","PLANNED_ROAD":600,"REAL_ROAD":72,"DELAY":24,"VEHICLE_NUMBER":392,"Current_Time":1615122189073,"Current_Day":7,"Current_Hour":14,"Current_Minutes":3,"Current_Seconds":9},{"lon":21.24963,"lat":48.99596,"ROUTE_NUMBER":10,"DIRECTION":"P","BUS_STOP_ORDER_NUM":4,"BUS_STOP_NUM_1":119,"Current_Stop":"Sládkovičova","BUS_STOP_SUB_NUM_2":0,"BUS_STOP_NUM_2":120,"Next_Stop":"Moyzesova","PLANNED_ROAD":288,"REAL_ROAD":167,"DELAY":38,"VEHICLE_NUMBER":400,"Current_Time":1615122189073,"Current_Day":7,"Current_Hour":14,"Current_Minutes":3,"Current_Seconds":9},{"lon":21.24645,"lat":48.9882,"ROUTE_NUMBER":38,"DIRECTION":"T","BUS_STOP_ORDER_NUM":8,"BUS_STOP_NUM_1":35,"Current_Stop":"Železničná stanica","BUS_STOP_SUB_NUM_2":0,"BUS_STOP_NUM_2":25,"Next_Stop":"Škultétyho","PLANNED_ROAD":990,"REAL_ROAD":605,"DELAY":-55,"VEHICLE_NUMBER":722,"Current_Time":1615122189073,"Current_Day":7,"Current_Hour":14,"Current_Minutes":3,"Current_Seconds":9},{"lon":21.24399,"lat":48.99338,"ROUTE_NUMBER":4,"DIRECTION":"T","BUS_STOP_ORDER_NUM":9,"BUS_STOP_NUM_1":4,"Current_Stop":"Čierny most","BUS_STOP_SUB_NUM_2":0,"BUS_STOP_NUM_2":205,"Next_Stop":"Divadlo Jonáša Záborského","PLANNED_ROAD":461,"REAL_ROAD":461,"DELAY":-111,"VEHICLE_NUMBER":723,"Current_Time":1615122189073,"Current_Day":7,"Current_Hour":14,"Current_Minutes":3,"Current_Seconds":9},{"lon":21.22893,"lat":49.02349,"ROUTE_NUMBER":8,"DIRECTION":"T","BUS_STOP_ORDER_NUM":19,"BUS_STOP_NUM_1":192,"Current_Stop":"Prostějovská","BUS_STOP_SUB_NUM_2":2,"BUS_STOP_NUM_2":193,"Next_Stop":"Sídlisko III","PLANNED_ROAD":422,"REAL_ROAD":422,"DELAY":182,"VEHICLE_NUMBER":727,"Current_Time":1615122189073,"Current_Day":7,"Current_Hour":14,"Current_Minutes":3,"Current_Seconds":9},{"lon":21.19168,"lat":49.03875,"ROUTE_NUMBER":45,"DIRECTION":"P","BUS_STOP_ORDER_NUM":2,"BUS_STOP_NUM_1":136,"Current_Stop":"Varoš","BUS_STOP_SUB_NUM_2":1,"BUS_STOP_NUM_2":155,"Next_Stop":"Nám.sv.Jakuba","PLANNED_ROAD":258,"REAL_ROAD":72,"DELAY":-47,"VEHICLE_NUMBER":367,"Current_Time":1615122204077,"Current_Day":7,"Current_Hour":14,"Current_Minutes":3,"Current_Seconds":24},{"lon":21.1915,"lat":48.99013,"ROUTE_NUMBER":18,"DIRECTION":"T","BUS_STOP_ORDER_NUM":10,"BUS_STOP_NUM_1":168,"Current_Stop":"Kvašná voda","BUS_STOP_SUB_NUM_2":0,"BUS_STOP_NUM_2":169,"Next_Stop":"Zabíjaná","PLANNED_ROAD":1681,"REAL_ROAD":19,"DELAY":24,"VEHICLE_NUMBER":392,"Current_Time":1615122249088,"Current_Day":7,"Current_Hour":14,"Current_Minutes":4,"Current_Seconds":9},{"lon":21.24206,"lat":48.99582,"ROUTE_NUMBER":4,"DIRECTION":"T","BUS_STOP_ORDER_NUM":11,"BUS_STOP_NUM_1":2,"Current_Stop":"Na Hlavnej","BUS_STOP_SUB_NUM_2":0,"BUS_STOP_NUM_2":1,"Next_Stop":"Trojica","PLANNED_ROAD":560,"REAL_ROAD":15,"DELAY":-106,"VEHICLE_NUMBER":723,"Current_Time":1615122249088,"Current_Day":7,"Current_Hour":14,"Current_Minutes":4,"Current_Seconds":9},{"lon":21.23983,"lat":48.99895,"ROUTE_NUMBER":15,"DIRECTION":"P","BUS_STOP_ORDER_NUM":13,"BUS_STOP_NUM_1":1,"Current_Stop":"Trojica","BUS_STOP_SUB_NUM_2":1,"BUS_STOP_NUM_2":2,"Next_Stop":"Na Hlavnej","PLANNED_ROAD":394,"REAL_ROAD":42,"DELAY":-64,"VEHICLE_NUMBER":378,"Current_Time":1615122279099,"Current_Day":7,"Current_Hour":14,"Current_Minutes":4,"Current_Seconds":39},{"lon":21.23976,"lat":48.99919,"ROUTE_NUMBER":4,"DIRECTION":"P","BUS_STOP_ORDER_NUM":8,"BUS_STOP_NUM_1":156,"Current_Stop":"Poliklinika","BUS_STOP_SUB_NUM_2":1,"BUS_STOP_NUM_2":1,"Next_Stop":"Trojica","PLANNED_ROAD":530,"REAL_ROAD":530,"DELAY":-117,"VEHICLE_NUMBER":725,"Current_Time":1615122324116,"Current_Day":7,"Current_Hour":14,"Current_Minutes":5,"Current_Seconds":24},{"lon":21.22847,"lat":48.99692,"ROUTE_NUMBER":38,"DIRECTION":"P","BUS_STOP_ORDER_NUM":8,"BUS_STOP_NUM_1":195,"Current_Stop":"Obrancov mieru","BUS_STOP_SUB_NUM_2":1,"BUS_STOP_NUM_2":198,"Next_Stop":"Duchnovičovo nám.","PLANNED_ROAD":617,"REAL_ROAD":16,"DELAY":-66,"VEHICLE_NUMBER":741,"Current_Time":1615122384130,"Current_Day":7,"Current_Hour":14,"Current_Minutes":6,"Current_Seconds":24},{"lon":21.23427,"lat":49.00085,"ROUTE_NUMBER":4,"DIRECTION":"T","BUS_STOP_ORDER_NUM":12,"BUS_STOP_NUM_1":1,"Current_Stop":"Trojica","BUS_STOP_SUB_NUM_2":0,"BUS_STOP_NUM_2":156,"Next_Stop":"Poliklinika","PLANNED_ROAD":640,"REAL_ROAD":558,"DELAY":-46,"VEHICLE_NUMBER":723,"Current_Time":1615122399139,"Current_Day":7,"Current_Hour":14,"Current_Minutes":6,"Current_Seconds":39},{"lon":21.1754,"lat":48.98606,"ROUTE_NUMBER":18,"DIRECTION":"T","BUS_STOP_ORDER_NUM":12,"BUS_STOP_NUM_1":170,"Current_Stop":"Školské lesy","BUS_STOP_SUB_NUM_2":2,"BUS_STOP_NUM_2":171,"Next_Stop":"Cemjata","PLANNED_ROAD":454,"REAL_ROAD":172,"DELAY":86,"VEHICLE_NUMBER":392,"Current_Time":1615122444143,"Current_Day":7,"Current_Hour":14,"Current_Minutes":7,"Current_Seconds":24},{"lon":21.24405,"lat":48.97951,"ROUTE_NUMBER":7,"DIRECTION":"T","BUS_STOP_ORDER_NUM":2,"BUS_STOP_NUM_1":22,"Current_Stop":"Pekárne","BUS_STOP_SUB_NUM_2":0,"BUS_STOP_NUM_2":23,"Next_Stop":"Priemyselné centrum","PLANNED_ROAD":295,"REAL_ROAD":29,"DELAY":-55,"VEHICLE_NUMBER":396,"Current_Time":1615122444143,"Current_Day":7,"Current_Hour":14,"Current_Minutes":7,"Current_Seconds":24},{"lon":21.22071,"lat":49.00321,"ROUTE_NUMBER":8,"DIRECTION":"P","BUS_STOP_ORDER_NUM":6,"BUS_STOP_NUM_1":188,"Current_Stop":"Volgogradská","BUS_STOP_SUB_NUM_2":1,"BUS_STOP_NUM_2":187,"Next_Stop":"Clementisova","PLANNED_ROAD":350,"REAL_ROAD":49,"DELAY":-17,"VEHICLE_NUMBER":742,"Current_Time":1615122459144,"Current_Day":7,"Current_Hour":14,"Current_Minutes":7,"Current_Seconds":39},{"lon":21.24817,"lat":48.99386,"ROUTE_NUMBER":15,"DIRECTION":"P","BUS_STOP_ORDER_NUM":15,"BUS_STOP_NUM_1":114,"Current_Stop":"Grešova","BUS_STOP_SUB_NUM_2":1,"BUS_STOP_NUM_2":117,"Next_Stop":"Fakultná nemocnica","PLANNED_ROAD":730,"REAL_ROAD":188,"DELAY":27,"VEHICLE_NUMBER":378,"Current_Time":1615122459144,"Current_Day":7,"Current_Hour":14,"Current_Minutes":7,"Current_Seconds":39},{"lon":21.2327,"lat":48.99336,"ROUTE_NUMBER":38,"DIRECTION":"P","BUS_STOP_ORDER_NUM":8,"BUS_STOP_NUM_1":195,"Current_Stop":"Obrancov mieru","BUS_STOP_SUB_NUM_2":1,"BUS_STOP_NUM_2":198,"Next_Stop":"Duchnovičovo nám.","PLANNED_ROAD":617,"REAL_ROAD":617,"DELAY":-27,"VEHICLE_NUMBER":741,"Current_Time":1615122459144,"Current_Day":7,"Current_Hour":14,"Current_Minutes":7,"Current_Seconds":39},{"lon":21.20405,"lat":49.04198,"ROUTE_NUMBER":45,"DIRECTION":"P","BUS_STOP_ORDER_NUM":5,"BUS_STOP_NUM_1":134,"Current_Stop":"Staničná","BUS_STOP_SUB_NUM_2":1,"BUS_STOP_NUM_2":133,"Next_Stop":"Pivovar","PLANNED_ROAD":410,"REAL_ROAD":16,"DELAY":-134,"VEHICLE_NUMBER":367,"Current_Time":1615122459144,"Current_Day":7,"Current_Hour":14,"Current_Minutes":7,"Current_Seconds":39},{"lon":21.23061,"lat":48.99444,"ROUTE_NUMBER":38,"DIRECTION":"T","BUS_STOP_ORDER_NUM":11,"BUS_STOP_NUM_1":198,"Current_Stop":"Duchnovičovo nám.","BUS_STOP_SUB_NUM_2":1,"BUS_STOP_NUM_2":197,"Next_Stop":"Nám.mládeže","PLANNED_ROAD":395,"REAL_ROAD":237,"DELAY":-78,"VEHICLE_NUMBER":722,"Current_Time":1615122489155,"Current_Day":7,"Current_Hour":14,"Current_Minutes":8,"Current_Seconds":9},{"lon":21.24335,"lat":48.98323,"ROUTE_NUMBER":7,"DIRECTION":"T","BUS_STOP_ORDER_NUM":3,"BUS_STOP_NUM_1":23,"Current_Stop":"Priemyselné centrum","BUS_STOP_SUB_NUM_2":0,"BUS_STOP_NUM_2":24,"Next_Stop":"Štúrova","PLANNED_ROAD":462,"REAL_ROAD":138,"DELAY":-41,"VEHICLE_NUMBER":396,"Current_Time":1615122504160,"Current_Day":7,"Current_Hour":14,"Current_Minutes":8,"Current_Seconds":24},{"lon":21.22683,"lat":48.99996,"ROUTE_NUMBER":8,"DIRECTION":"P","BUS_STOP_ORDER_NUM":7,"BUS_STOP_NUM_1":187,"Current_Stop":"Clementisova","BUS_STOP_SUB_NUM_2":1,"BUS_STOP_NUM_2":156,"Next_Stop":"Poliklinika","PLANNED_ROAD":1005,"REAL_ROAD":289,"DELAY":-26,"VEHICLE_NUMBER":742,"Current_Time":1615122579185,"Current_Day":7,"Current_Hour":14,"Current_Minutes":9,"Current_Seconds":39},{"lon":21.22295,"lat":49.00109,"ROUTE_NUMBER":23,"DIRECTION":"P","BUS_STOP_ORDER_NUM":6,"BUS_STOP_NUM_1":157,"Current_Stop":"Levočská","BUS_STOP_SUB_NUM_2":0,"BUS_STOP_NUM_2":158,"Next_Stop":"Mýto","PLANNED_ROAD":805,"REAL_ROAD":21,"DELAY":47,"VEHICLE_NUMBER":386,"Current_Time":1615122699235,"Current_Day":7,"Current_Hour":14,"Current_Minutes":11,"Current_Seconds":39},{"lon":21.22142,"lat":49.00667,"ROUTE_NUMBER":4,"DIRECTION":"T","BUS_STOP_ORDER_NUM":15,"BUS_STOP_NUM_1":188,"Current_Stop":"Volgogradská","BUS_STOP_SUB_NUM_2":0,"BUS_STOP_NUM_2":189,"Next_Stop":"Nám.Kráľ.pokoja","PLANNED_ROAD":287,"REAL_ROAD":287,"DELAY":-16,"VEHICLE_NUMBER":723,"Current_Time":1615122699235,"Current_Day":7,"Current_Hour":14,"Current_Minutes":11,"Current_Seconds":39},{"lon":21.17836,"lat":48.98964,"ROUTE_NUMBER":18,"DIRECTION":"P","BUS_STOP_ORDER_NUM":2,"BUS_STOP_NUM_1":170,"Current_Stop":"Školské lesy","BUS_STOP_SUB_NUM_2":1,"BUS_STOP_NUM_2":169,"Next_Stop":"Zabíjaná","PLANNED_ROAD":410,"REAL_ROAD":262,"DELAY":30,"VEHICLE_NUMBER":392,"Current_Time":1615122744250,"Current_Day":7,"Current_Hour":14,"Current_Minutes":12,"Current_Seconds":24},{"lon":21.24993,"lat":48.98301,"ROUTE_NUMBER":38,"DIRECTION":"P","BUS_STOP_ORDER_NUM":11,"BUS_STOP_NUM_1":25,"Current_Stop":"Škultétyho","BUS_STOP_SUB_NUM_2":1,"BUS_STOP_NUM_2":35,"Next_Stop":"Železničná stanica","PLANNED_ROAD":1110,"REAL_ROAD":1110,"DELAY":34,"VEHICLE_NUMBER":741,"Current_Time":1615122759266,"Current_Day":7,"Current_Hour":14,"Current_Minutes":12,"Current_Seconds":39},{"lon":21.24923,"lat":48.98963,"ROUTE_NUMBER":13,"DIRECTION":"T","BUS_STOP_ORDER_NUM":12,"BUS_STOP_NUM_1":506,"Current_Stop":"HOBBY PARK","BUS_STOP_SUB_NUM_2":0,"BUS_STOP_NUM_2":4,"Next_Stop":"Čierny most","PLANNED_ROAD":860,"REAL_ROAD":547,"DELAY":165,"VEHICLE_NUMBER":372,"Current_Time":1615122834273,"Current_Day":7,"Current_Hour":14,"Current_Minutes":13,"Current_Seconds":54},{"lon":21.2497,"lat":48.99587,"ROUTE_NUMBER":15,"DIRECTION":"T","BUS_STOP_ORDER_NUM":3,"BUS_STOP_NUM_1":119,"Current_Stop":"Sládkovičova","BUS_STOP_SUB_NUM_2":0,"BUS_STOP_NUM_2":120,"Next_Stop":"Moyzesova","PLANNED_ROAD":288,"REAL_ROAD":178,"DELAY":-5,"VEHICLE_NUMBER":378,"Current_Time":1615122849281,"Current_Day":7,"Current_Hour":14,"Current_Minutes":14,"Current_Seconds":9},{"lon":21.23703,"lat":49.0129,"ROUTE_NUMBER":45,"DIRECTION":"P","BUS_STOP_ORDER_NUM":9,"BUS_STOP_NUM_1":128,"Current_Stop":"Pod Skalkou","BUS_STOP_SUB_NUM_2":1,"BUS_STOP_NUM_2":127,"Next_Stop":"Mičurinova","PLANNED_ROAD":439,"REAL_ROAD":219,"DELAY":-21,"VEHICLE_NUMBER":367,"Current_Time":1615122849281,"Current_Day":7,"Current_Hour":14,"Current_Minutes":14,"Current_Seconds":9},{"lon":21.24213,"lat":48.99554,"ROUTE_NUMBER":8,"DIRECTION":"P","BUS_STOP_ORDER_NUM":10,"BUS_STOP_NUM_1":2,"Current_Stop":"Na Hlavnej","BUS_STOP_SUB_NUM_2":1,"BUS_STOP_NUM_2":3,"Next_Stop":"Veľká pošta","PLANNED_ROAD":555,"REAL_ROAD":55,"DELAY":61,"VEHICLE_NUMBER":742,"Current_Time":1615122864295,"Current_Day":7,"Current_Hour":14,"Current_Minutes":14,"Current_Seconds":24},{"lon":21.22243,"lat":49.01256,"ROUTE_NUMBER":4,"DIRECTION":"P","BUS_STOP_ORDER_NUM":3,"BUS_STOP_NUM_1":191,"Current_Stop":"Centrum","BUS_STOP_SUB_NUM_2":1,"BUS_STOP_NUM_2":190,"Next_Stop":"VUKOV","PLANNED_ROAD":517,"REAL_ROAD":460,"DELAY":35,"VEHICLE_NUMBER":746,"Current_Time":1615122864295,"Current_Day":7,"Current_Hour":14,"Current_Minutes":14,"Current_Seconds":24},{"lon":21.22343,"lat":49.01729,"ROUTE_NUMBER":4,"DIRECTION":"T","BUS_STOP_ORDER_NUM":18,"BUS_STOP_NUM_1":191,"Current_Stop":"Centrum","BUS_STOP_SUB_NUM_2":0,"BUS_STOP_NUM_2":192,"Next_Stop":"Prostějovská","PLANNED_ROAD":457,"REAL_ROAD":27,"DELAY":0,"VEHICLE_NUMBER":723,"Current_Time":1615122864295,"Current_Day":7,"Current_Hour":14,"Current_Minutes":14,"Current_Seconds":24},{"lon":21.23926,"lat":49.00147,"ROUTE_NUMBER":8,"DIRECTION":"T","BUS_STOP_ORDER_NUM":12,"BUS_STOP_NUM_1":1,"Current_Stop":"Trojica","BUS_STOP_SUB_NUM_2":0,"BUS_STOP_NUM_2":156,"Next_Stop":"Poliklinika","PLANNED_ROAD":640,"REAL_ROAD":128,"DELAY":14,"VEHICLE_NUMBER":743,"Current_Time":1615122864295,"Current_Day":7,"Current_Hour":14,"Current_Minutes":14,"Current_Seconds":24},{"lon":21.19201,"lat":48.99011,"ROUTE_NUMBER":18,"DIRECTION":"P","BUS_STOP_ORDER_NUM":4,"BUS_STOP_NUM_1":168,"Current_Stop":"Kvašná voda","BUS_STOP_SUB_NUM_2":1,"BUS_STOP_NUM_2":167,"Next_Stop":"Vydumanec","PLANNED_ROAD":560,"REAL_ROAD":22,"DELAY":71,"VEHICLE_NUMBER":392,"Current_Time":1615122924311,"Current_Day":7,"Current_Hour":14,"Current_Minutes":15,"Current_Seconds":24},{"lon":21.19818,"lat":48.99279,"ROUTE_NUMBER":18,"DIRECTION":"P","BUS_STOP_ORDER_NUM":5,"BUS_STOP_NUM_1":167,"Current_Stop":"Vydumanec","BUS_STOP_SUB_NUM_2":0,"BUS_STOP_NUM_2":154,"Next_Stop":"Rázc. Cemjata","PLANNED_ROAD":890,"REAL_ROAD":24,"DELAY":63,"VEHICLE_NUMBER":392,"Current_Time":1615122984332,"Current_Day":7,"Current_Hour":14,"Current_Minutes":16,"Current_Seconds":24},{"lon":21.2499,"lat":48.98436,"ROUTE_NUMBER":1,"DIRECTION":"T","BUS_STOP_ORDER_NUM":5,"BUS_STOP_NUM_1":529,"Current_Stop":"Škára","BUS_STOP_SUB_NUM_2":0,"BUS_STOP_NUM_2":35,"Next_Stop":"Železničná stanica","PLANNED_ROAD":850,"REAL_ROAD":850,"DELAY":-66,"VEHICLE_NUMBER":737,"Current_Time":1615122984332,"Current_Day":7,"Current_Hour":14,"Current_Minutes":16,"Current_Seconds":24},{"lon":21.22131,"lat":49.00626,"ROUTE_NUMBER":4,"DIRECTION":"P","BUS_STOP_ORDER_NUM":5,"BUS_STOP_NUM_1":189,"Current_Stop":"Nám.Kráľ.pokoja","BUS_STOP_SUB_NUM_2":1,"BUS_STOP_NUM_2":188,"Next_Stop":"Volgogradská","PLANNED_ROAD":387,"REAL_ROAD":69,"DELAY":5,"VEHICLE_NUMBER":746,"Current_Time":1615122984332,"Current_Day":7,"Current_Hour":14,"Current_Minutes":16,"Current_Seconds":24},{"lon":21.2499,"lat":48.98316,"ROUTE_NUMBER":8,"DIRECTION":"P","BUS_STOP_ORDER_NUM":12,"BUS_STOP_NUM_1":4,"Current_Stop":"Čierny most","BUS_STOP_SUB_NUM_2":1,"BUS_STOP_NUM_2":35,"Next_Stop":"Železničná stanica","PLANNED_ROAD":790,"REAL_ROAD":782,"DELAY":102,"VEHICLE_NUMBER":742,"Current_Time":1615123104340,"Current_Day":7,"Current_Hour":14,"Current_Minutes":18,"Current_Seconds":24},{"lon":21.22364,"lat":49.00191,"ROUTE_NUMBER":8,"DIRECTION":"T","BUS_STOP_ORDER_NUM":14,"BUS_STOP_NUM_1":187,"Current_Stop":"Clementisova","BUS_STOP_SUB_NUM_2":0,"BUS_STOP_NUM_2":188,"Next_Stop":"Volgogradská","PLANNED_ROAD":450,"REAL_ROAD":54,"DELAY":61,"VEHICLE_NUMBER":743,"Current_Time":1615123104340,"Current_Day":7,"Current_Hour":14,"Current_Minutes":18,"Current_Seconds":24},{"lon":21.17947,"lat":49.00802,"ROUTE_NUMBER":23,"DIRECTION":"P","BUS_STOP_ORDER_NUM":11,"BUS_STOP_NUM_1":162,"Current_Stop":"OcÚ M.Šariš","BUS_STOP_SUB_NUM_2":0,"BUS_STOP_NUM_2":163,"Next_Stop":"Nákupné stredisko","PLANNED_ROAD":285,"REAL_ROAD":17,"DELAY":105,"VEHICLE_NUMBER":386,"Current_Time":1615123119348,"Current_Day":7,"Current_Hour":14,"Current_Minutes":18,"Current_Seconds":39},{"lon":21.24521,"lat":48.99186,"ROUTE_NUMBER":1,"DIRECTION":"T","BUS_STOP_ORDER_NUM":7,"BUS_STOP_NUM_1":4,"Current_Stop":"Čierny most","BUS_STOP_SUB_NUM_2":0,"BUS_STOP_NUM_2":205,"Next_Stop":"Divadlo Jonáša Záborského","PLANNED_ROAD":461,"REAL_ROAD":276,"DELAY":-60,"VEHICLE_NUMBER":737,"Current_Time":1615123164370,"Current_Day":7,"Current_Hour":14,"Current_Minutes":19,"Current_Seconds":24},{"lon":21.21936,"lat":49.00217,"ROUTE_NUMBER":18,"DIRECTION":"P","BUS_STOP_ORDER_NUM":7,"BUS_STOP_NUM_1":158,"Current_Stop":"Mýto","BUS_STOP_SUB_NUM_2":1,"BUS_STOP_NUM_2":157,"Next_Stop":"Levočská","PLANNED_ROAD":700,"REAL_ROAD":292,"DELAY":76,"VEHICLE_NUMBER":392,"Current_Time":1615123194370,"Current_Day":7,"Current_Hour":14,"Current_Minutes":19,"Current_Seconds":54},{"lon":21.23697,"lat":49.01371,"ROUTE_NUMBER":14,"DIRECTION":"T","BUS_STOP_ORDER_NUM":6,"BUS_STOP_NUM_1":127,"Current_Stop":"Mičurinova","BUS_STOP_SUB_NUM_2":0,"BUS_STOP_NUM_2":128,"Next_Stop":"Pod Skalkou","PLANNED_ROAD":435,"REAL_ROAD":200,"DELAY":-73,"VEHICLE_NUMBER":396,"Current_Time":1615123194370,"Current_Day":7,"Current_Hour":14,"Current_Minutes":19,"Current_Seconds":54},{"lon":21.18638,"lat":49.01449,"ROUTE_NUMBER":23,"DIRECTION":"P","BUS_STOP_ORDER_NUM":13,"BUS_STOP_NUM_1":164,"Current_Stop":"Šľachtiteľská stanica","BUS_STOP_SUB_NUM_2":2,"BUS_STOP_NUM_2":165,"Next_Stop":"Malý Šariš","PLANNED_ROAD":271,"REAL_ROAD":205,"DELAY":155,"VEHICLE_NUMBER":386,"Current_Time":1615123224406,"Current_Day":7,"Current_Hour":14,"Current_Minutes":20,"Current_Seconds":24},{"lon":21.24991,"lat":48.9842,"ROUTE_NUMBER":14,"DIRECTION":"T","BUS_STOP_ORDER_NUM":5,"BUS_STOP_NUM_1":7,"Current_Stop":"Nový Solivar","BUS_STOP_SUB_NUM_2":0,"BUS_STOP_NUM_2":35,"Next_Stop":"Železničná stanica","PLANNED_ROAD":654,"REAL_ROAD":654,"DELAY":-116,"VEHICLE_NUMBER":384,"Current_Time":1615123284398,"Current_Day":7,"Current_Hour":14,"Current_Minutes":21,"Current_Seconds":24},{"lon":21.23579,"lat":49.02068,"ROUTE_NUMBER":14,"DIRECTION":"T","BUS_STOP_ORDER_NUM":8,"BUS_STOP_NUM_1":129,"Current_Stop":"Rázc.Šidlovec","BUS_STOP_SUB_NUM_2":0,"BUS_STOP_NUM_2":130,"Next_Stop":"Dúbrava","PLANNED_ROAD":610,"REAL_ROAD":16,"DELAY":-61,"VEHICLE_NUMBER":396,"Current_Time":1615123284398,"Current_Day":7,"Current_Hour":14,"Current_Minutes":21,"Current_Seconds":24},{"lon":21.24683,"lat":48.9898,"ROUTE_NUMBER":41,"DIRECTION":"T","BUS_STOP_ORDER_NUM":1,"BUS_STOP_NUM_1":4,"Current_Stop":"Čierny most","BUS_STOP_SUB_NUM_2":0,"BUS_STOP_NUM_2":205,"Next_Stop":"Divadlo Jonáša Záborského","PLANNED_ROAD":461,"REAL_ROAD":0,"DELAY":-176,"VEHICLE_NUMBER":373,"Current_Time":1615123329423,"Current_Day":7,"Current_Hour":14,"Current_Minutes":22,"Current_Seconds":9},{"lon":21.24747,"lat":48.99278,"ROUTE_NUMBER":22,"DIRECTION":"T","BUS_STOP_ORDER_NUM":15,"BUS_STOP_NUM_1":121,"Current_Stop":"Lesík delostrelcov","BUS_STOP_SUB_NUM_2":0,"BUS_STOP_NUM_2":113,"Next_Stop":"Kpt.Nálepku","PLANNED_ROAD":255,"REAL_ROAD":153,"DELAY":-10,"VEHICLE_NUMBER":391,"Current_Time":1615123329423,"Current_Day":7,"Current_Hour":14,"Current_Minutes":22,"Current_Seconds":9},{"lon":21.24664,"lat":48.99255,"ROUTE_NUMBER":22,"DIRECTION":"T","BUS_STOP_ORDER_NUM":16,"BUS_STOP_NUM_1":113,"Current_Stop":"Kpt.Nálepku","BUS_STOP_SUB_NUM_2":0,"BUS_STOP_NUM_2":205,"Next_Stop":"Divadlo Jonáša Záborského","PLANNED_ROAD":303,"REAL_ROAD":19,"DELAY":-5,"VEHICLE_NUMBER":391,"Current_Time":1615123359434,"Current_Day":7,"Current_Hour":14,"Current_Minutes":22,"Current_Seconds":39},{"lon":21.2392,"lat":49.00063,"ROUTE_NUMBER":39,"DIRECTION":"T","BUS_STOP_ORDER_NUM":10,"BUS_STOP_NUM_1":1,"Current_Stop":"Trojica","BUS_STOP_SUB_NUM_2":0,"BUS_STOP_NUM_2":151,"Next_Stop":"Bjornsonova","PLANNED_ROAD":760,"REAL_ROAD":49,"DELAY":-58,"VEHICLE_NUMBER":380,"Current_Time":1615123359434,"Current_Day":7,"Current_Hour":14,"Current_Minutes":22,"Current_Seconds":39},{"lon":21.22982,"lat":49.02631,"ROUTE_NUMBER":14,"DIRECTION":"T","BUS_STOP_ORDER_NUM":9,"BUS_STOP_NUM_1":130,"Current_Stop":"Dúbrava","BUS_STOP_SUB_NUM_2":0,"BUS_STOP_NUM_2":131,"Next_Stop":"Bikoš","PLANNED_ROAD":1130,"REAL_ROAD":203,"DELAY":-43,"VEHICLE_NUMBER":396,"Current_Time":1615123389422,"Current_Day":7,"Current_Hour":14,"Current_Minutes":23,"Current_Seconds":9},{"lon":21.24671,"lat":48.98993,"ROUTE_NUMBER":11,"DIRECTION":"T","BUS_STOP_ORDER_NUM":1,"BUS_STOP_NUM_1":4,"Current_Stop":"Čierny most","BUS_STOP_SUB_NUM_2":0,"BUS_STOP_NUM_2":205,"Next_Stop":"Divadlo Jonáša Záborského","PLANNED_ROAD":461,"REAL_ROAD":50,"DELAY":-169,"VEHICLE_NUMBER":384,"Current_Time":1615123404426,"Current_Day":7,"Current_Hour":14,"Current_Minutes":23,"Current_Seconds":24},{"lon":21.22402,"lat":48.99743,"ROUTE_NUMBER":15,"DIRECTION":"T","BUS_STOP_ORDER_NUM":9,"BUS_STOP_NUM_1":177,"Current_Stop":"Centrál","BUS_STOP_SUB_NUM_2":0,"BUS_STOP_NUM_2":176,"Next_Stop":"Októbrová","PLANNED_ROAD":329,"REAL_ROAD":217,"DELAY":76,"VEHICLE_NUMBER":378,"Current_Time":1615123419424,"Current_Day":7,"Current_Hour":14,"Current_Minutes":23,"Current_Seconds":39},{"lon":21.24399,"lat":48.99338,"ROUTE_NUMBER":41,"DIRECTION":"T","BUS_STOP_ORDER_NUM":2,"BUS_STOP_NUM_1":205,"Current_Stop":"Divadlo Jonáša Záborského","BUS_STOP_SUB_NUM_2":0,"BUS_STOP_NUM_2":2,"Next_Stop":"Na Hlavnej","PLANNED_ROAD":290,"REAL_ROAD":17,"DELAY":-142,"VEHICLE_NUMBER":373,"Current_Time":1615123419424,"Current_Day":7,"Current_Hour":14,"Current_Minutes":23,"Current_Seconds":39},{"lon":21.24407,"lat":48.99332,"ROUTE_NUMBER":11,"DIRECTION":"T","BUS_STOP_ORDER_NUM":2,"BUS_STOP_NUM_1":205,"Current_Stop":"Divadlo Jonáša Záborského","BUS_STOP_SUB_NUM_2":0,"BUS_STOP_NUM_2":2,"Next_Stop":"Na Hlavnej","PLANNED_ROAD":290,"REAL_ROAD":17,"DELAY":-135,"VEHICLE_NUMBER":384,"Current_Time":1615123479432,"Current_Day":7,"Current_Hour":14,"Current_Minutes":24,"Current_Seconds":39},{"lon":21.24384,"lat":48.99351,"ROUTE_NUMBER":22,"DIRECTION":"T","BUS_STOP_ORDER_NUM":17,"BUS_STOP_NUM_1":205,"Current_Stop":"Divadlo Jonáša Záborského","BUS_STOP_SUB_NUM_2":0,"BUS_STOP_NUM_2":2,"Next_Stop":"Na Hlavnej","PLANNED_ROAD":290,"REAL_ROAD":23,"DELAY":-12,"VEHICLE_NUMBER":391,"Current_Time":1615123479432,"Current_Day":7,"Current_Hour":14,"Current_Minutes":24,"Current_Seconds":39},{"lon":21.24024,"lat":48.9983,"ROUTE_NUMBER":18,"DIRECTION":"P","BUS_STOP_ORDER_NUM":10,"BUS_STOP_NUM_1":1,"Current_Stop":"Trojica","BUS_STOP_SUB_NUM_2":1,"BUS_STOP_NUM_2":2,"Next_Stop":"Na Hlavnej","PLANNED_ROAD":394,"REAL_ROAD":107,"DELAY":43,"VEHICLE_NUMBER":392,"Current_Time":1615123569423,"Current_Day":7,"Current_Hour":14,"Current_Minutes":26,"Current_Seconds":9},{"lon":21.23923,"lat":49.00037,"ROUTE_NUMBER":41,"DIRECTION":"T","BUS_STOP_ORDER_NUM":4,"BUS_STOP_NUM_1":1,"Current_Stop":"Trojica","BUS_STOP_SUB_NUM_2":0,"BUS_STOP_NUM_2":78,"Next_Stop":"Duklianska","PLANNED_ROAD":540,"REAL_ROAD":19,"DELAY":-122,"VEHICLE_NUMBER":373,"Current_Time":1615123584444,"Current_Day":7,"Current_Hour":14,"Current_Minutes":26,"Current_Seconds":24},{"lon":21.21161,"lat":49.04232,"ROUTE_NUMBER":14,"DIRECTION":"T","BUS_STOP_ORDER_NUM":11,"BUS_STOP_NUM_1":530,"Current_Stop":"Šariš park","BUS_STOP_SUB_NUM_2":0,"BUS_STOP_NUM_2":139,"Next_Stop":"Rázcestie Kanaš","PLANNED_ROAD":365,"REAL_ROAD":167,"DELAY":-45,"VEHICLE_NUMBER":396,"Current_Time":1615123584444,"Current_Day":7,"Current_Hour":14,"Current_Minutes":26,"Current_Seconds":24},{"lon":21.24694,"lat":49.00645,"ROUTE_NUMBER":28,"DIRECTION":"P","BUS_STOP_ORDER_NUM":11,"BUS_STOP_NUM_1":79,"Current_Stop":"Rázcestie Kúty","BUS_STOP_SUB_NUM_2":1,"BUS_STOP_NUM_2":78,"Next_Stop":"Duklianska","PLANNED_ROAD":903,"REAL_ROAD":311,"DELAY":59,"VEHICLE_NUMBER":362,"Current_Time":1615123914454,"Current_Day":7,"Current_Hour":14,"Current_Minutes":31,"Current_Seconds":54},{"lon":21.21521,"lat":49.00477,"ROUTE_NUMBER":11,"DIRECTION":"T","BUS_STOP_ORDER_NUM":7,"BUS_STOP_NUM_1":200,"Current_Stop":"Rázc.Rúrky","BUS_STOP_SUB_NUM_2":0,"BUS_STOP_NUM_2":201,"Next_Stop":"J.Bereša","PLANNED_ROAD":210,"REAL_ROAD":155,"DELAY":-16,"VEHICLE_NUMBER":384,"Current_Time":1615123944479,"Current_Day":7,"Current_Hour":14,"Current_Minutes":32,"Current_Seconds":24},{"lon":21.24177,"lat":49.03232,"ROUTE_NUMBER":22,"DIRECTION":"T","BUS_STOP_ORDER_NUM":25,"BUS_STOP_NUM_1":541,"Current_Stop":"Šidlovská","BUS_STOP_SUB_NUM_2":0,"BUS_STOP_NUM_2":149,"Next_Stop":"Jahodová","PLANNED_ROAD":370,"REAL_ROAD":281,"DELAY":156,"VEHICLE_NUMBER":391,"Current_Time":1615124064498,"Current_Day":7,"Current_Hour":14,"Current_Minutes":34,"Current_Seconds":24},{"lon":21.2399,"lat":48.99899,"ROUTE_NUMBER":2,"DIRECTION":"P","BUS_STOP_ORDER_NUM":6,"BUS_STOP_NUM_1":1,"Current_Stop":"Trojica","BUS_STOP_SUB_NUM_2":1,"BUS_STOP_NUM_2":2,"Next_Stop":"Na Hlavnej","PLANNED_ROAD":394,"REAL_ROAD":25,"DELAY":3,"VEHICLE_NUMBER":733,"Current_Time":1615124064498,"Current_Day":7,"Current_Hour":14,"Current_Minutes":34,"Current_Seconds":24},{"lon":21.24868,"lat":49.00135,"ROUTE_NUMBER":27,"DIRECTION":"P","BUS_STOP_ORDER_NUM":2,"BUS_STOP_NUM_1":539,"Current_Stop":"Vodárenská","BUS_STOP_SUB_NUM_2":0,"BUS_STOP_NUM_2":118,"Next_Stop":"Dilongova","PLANNED_ROAD":456,"REAL_ROAD":118,"DELAY":-120,"VEHICLE_NUMBER":389,"Current_Time":1615124079492,"Current_Day":7,"Current_Hour":14,"Current_Minutes":34,"Current_Seconds":39},{"lon":21.18293,"lat":49.0105,"ROUTE_NUMBER":23,"DIRECTION":"T","BUS_STOP_ORDER_NUM":2,"BUS_STOP_NUM_1":164,"Current_Stop":"Šľachtiteľská stanica","BUS_STOP_SUB_NUM_2":1,"BUS_STOP_NUM_2":163,"Next_Stop":"Nákupné stredisko","PLANNED_ROAD":390,"REAL_ROAD":280,"DELAY":-105,"VEHICLE_NUMBER":386,"Current_Time":1615124079492,"Current_Day":7,"Current_Hour":14,"Current_Minutes":34,"Current_Seconds":39},{"lon":21.24115,"lat":48.95371,"ROUTE_NUMBER":24,"DIRECTION":"T","BUS_STOP_ORDER_NUM":1,"BUS_STOP_NUM_1":13,"Current_Stop":"Haniska","BUS_STOP_SUB_NUM_2":0,"BUS_STOP_NUM_2":12,"Next_Stop":"Lemešianska","PLANNED_ROAD":262,"REAL_ROAD":47,"DELAY":-1,"VEHICLE_NUMBER":372,"Current_Time":1615124079492,"Current_Day":7,"Current_Hour":14,"Current_Minutes":34,"Current_Seconds":39},{"lon":21.18096,"lat":49.00899,"ROUTE_NUMBER":23,"DIRECTION":"T","BUS_STOP_ORDER_NUM":3,"BUS_STOP_NUM_1":163,"Current_Stop":"Nákupné stredisko","BUS_STOP_SUB_NUM_2":1,"BUS_STOP_NUM_2":162,"Next_Stop":"OcÚ M.Šariš","PLANNED_ROAD":290,"REAL_ROAD":116,"DELAY":-90,"VEHICLE_NUMBER":386,"Current_Time":1615124109498,"Current_Day":7,"Current_Hour":14,"Current_Minutes":35,"Current_Seconds":9},{"lon":21.24056,"lat":48.95699,"ROUTE_NUMBER":24,"DIRECTION":"T","BUS_STOP_ORDER_NUM":2,"BUS_STOP_NUM_1":12,"Current_Stop":"Lemešianska","BUS_STOP_SUB_NUM_2":0,"BUS_STOP_NUM_2":11,"Next_Stop":"Priecestie","PLANNED_ROAD":237,"REAL_ROAD":142,"DELAY":34,"VEHICLE_NUMBER":372,"Current_Time":1615124124497,"Current_Day":7,"Current_Hour":14,"Current_Minutes":35,"Current_Seconds":24},{"lon":21.23983,"lat":48.9992,"ROUTE_NUMBER":28,"DIRECTION":"P","BUS_STOP_ORDER_NUM":13,"BUS_STOP_NUM_1":1,"Current_Stop":"Trojica","BUS_STOP_SUB_NUM_2":1,"BUS_STOP_NUM_2":2,"Next_Stop":"Na Hlavnej","PLANNED_ROAD":394,"REAL_ROAD":3,"DELAY":52,"VEHICLE_NUMBER":362,"Current_Time":1615124124497,"Current_Day":7,"Current_Hour":14,"Current_Minutes":35,"Current_Seconds":24},{"lon":21.1865,"lat":49.01489,"ROUTE_NUMBER":23,"DIRECTION":"T","BUS_STOP_ORDER_NUM":1,"BUS_STOP_NUM_1":165,"Current_Stop":"Malý Šariš","BUS_STOP_SUB_NUM_2":1,"BUS_STOP_NUM_2":164,"Next_Stop":"Šľachtiteľská stanica","PLANNED_ROAD":330,"REAL_ROAD":0,"DELAY":-134,"VEHICLE_NUMBER":386,"Current_Time":1615124019491,"Current_Day":7,"Current_Hour":14,"Current_Minutes":33,"Current_Seconds":39},{"lon":21.24963,"lat":49.00242,"ROUTE_NUMBER":27,"DIRECTION":"P","BUS_STOP_ORDER_NUM":1,"BUS_STOP_NUM_1":538,"Current_Stop":"Hviezdna","BUS_STOP_SUB_NUM_2":0,"BUS_STOP_NUM_2":539,"Next_Stop":"Vodárenská","PLANNED_ROAD":260,"REAL_ROAD":213,"DELAY":-96,"VEHICLE_NUMBER":389,"Current_Time":1615124019491,"Current_Day":7,"Current_Hour":14,"Current_Minutes":33,"Current_Seconds":39},{"lon":21.2398,"lat":49.00205,"ROUTE_NUMBER":28,"DIRECTION":"P","BUS_STOP_ORDER_NUM":12,"BUS_STOP_NUM_1":78,"Current_Stop":"Duklianska","BUS_STOP_SUB_NUM_2":1,"BUS_STOP_NUM_2":1,"Next_Stop":"Trojica","PLANNED_ROAD":500,"REAL_ROAD":145,"DELAY":89,"VEHICLE_NUMBER":362,"Current_Time":1615124004489,"Current_Day":7,"Current_Hour":14,"Current_Minutes":33,"Current_Seconds":24},{"lon":21.24558,"lat":49.03157,"ROUTE_NUMBER":22,"DIRECTION":"T","BUS_STOP_ORDER_NUM":26,"BUS_STOP_NUM_1":149,"Current_Stop":"Jahodová","BUS_STOP_SUB_NUM_2":0,"BUS_STOP_NUM_2":150,"Next_Stop":"Šidlovec","PLANNED_ROAD":515,"REAL_ROAD":206,"DELAY":157,"VEHICLE_NUMBER":391,"Current_Time":1615124109498,"Current_Day":7,"Current_Hour":14,"Current_Minutes":35,"Current_Seconds":9},{"lon":21.24206,"lat":48.99561,"ROUTE_NUMBER":2,"DIRECTION":"P","BUS_STOP_ORDER_NUM":7,"BUS_STOP_NUM_1":2,"Current_Stop":"Na Hlavnej","BUS_STOP_SUB_NUM_2":1,"BUS_STOP_NUM_2":3,"Next_Stop":"Veľká pošta","PLANNED_ROAD":555,"REAL_ROAD":55,"DELAY":48,"VEHICLE_NUMBER":733,"Current_Time":1615124139513,"Current_Day":7,"Current_Hour":14,"Current_Minutes":35,"Current_Seconds":39},{"lon":21.23661,"lat":49.00106,"ROUTE_NUMBER":15,"DIRECTION":"P","BUS_STOP_ORDER_NUM":12,"BUS_STOP_NUM_1":156,"Current_Stop":"Poliklinika","BUS_STOP_SUB_NUM_2":1,"BUS_STOP_NUM_2":1,"Next_Stop":"Trojica","PLANNED_ROAD":530,"REAL_ROAD":57,"DELAY":-15,"VEHICLE_NUMBER":378,"Current_Time":1615122114027,"Current_Day":7,"Current_Hour":14,"Current_Minutes":1,"Current_Seconds":54},{"lon":21.189,"lat":49.04211,"ROUTE_NUMBER":45,"DIRECTION":"P","BUS_STOP_ORDER_NUM":1,"BUS_STOP_NUM_1":137,"Current_Stop":"Veľký Šariš","BUS_STOP_SUB_NUM_2":1,"BUS_STOP_NUM_2":136,"Next_Stop":"Varoš","PLANNED_ROAD":293,"REAL_ROAD":0,"DELAY":-24,"VEHICLE_NUMBER":367,"Current_Time":1615122114027,"Current_Day":7,"Current_Hour":14,"Current_Minutes":1,"Current_Seconds":54},{"lon":21.2478,"lat":48.98836,"ROUTE_NUMBER":38,"DIRECTION":"T","BUS_STOP_ORDER_NUM":8,"BUS_STOP_NUM_1":35,"Current_Stop":"Železničná stanica","BUS_STOP_SUB_NUM_2":0,"BUS_STOP_NUM_2":25,"Next_Stop":"Škultétyho","PLANNED_ROAD":990,"REAL_ROAD":471,"DELAY":-22,"VEHICLE_NUMBER":722,"Current_Time":1615122129040,"Current_Day":7,"Current_Hour":14,"Current_Minutes":2,"Current_Seconds":9},{"lon":21.22218,"lat":49.01106,"ROUTE_NUMBER":38,"DIRECTION":"P","BUS_STOP_ORDER_NUM":4,"BUS_STOP_NUM_1":190,"Current_Stop":"VUKOV","BUS_STOP_SUB_NUM_2":1,"BUS_STOP_NUM_2":189,"Next_Stop":"Nám.Kráľ.pokoja","PLANNED_ROAD":585,"REAL_ROAD":128,"DELAY":-105,"VEHICLE_NUMBER":741,"Current_Time":1615122129040,"Current_Day":7,"Current_Hour":14,"Current_Minutes":2,"Current_Seconds":9},{"lon":21.24167,"lat":48.98658,"ROUTE_NUMBER":38,"DIRECTION":"T","BUS_STOP_ORDER_NUM":9,"BUS_STOP_NUM_1":25,"Current_Stop":"Škultétyho","BUS_STOP_SUB_NUM_2":0,"BUS_STOP_NUM_2":199,"Next_Stop":"Prešovská univerzita","PLANNED_ROAD":766,"REAL_ROAD":20,"DELAY":-52,"VEHICLE_NUMBER":722,"Current_Time":1615122264099,"Current_Day":7,"Current_Hour":14,"Current_Minutes":4,"Current_Seconds":24},{"lon":21.24972,"lat":48.98444,"ROUTE_NUMBER":28,"DIRECTION":"T","BUS_STOP_ORDER_NUM":8,"BUS_STOP_NUM_1":35,"Current_Stop":"Železničná stanica","BUS_STOP_SUB_NUM_2":0,"BUS_STOP_NUM_2":4,"Next_Stop":"Čierny most","PLANNED_ROAD":650,"REAL_ROAD":17,"DELAY":-65,"VEHICLE_NUMBER":362,"Current_Time":1615122264099,"Current_Day":7,"Current_Hour":14,"Current_Minutes":4,"Current_Seconds":24},{"lon":21.22121,"lat":49.00274,"ROUTE_NUMBER":38,"DIRECTION":"P","BUS_STOP_ORDER_NUM":6,"BUS_STOP_NUM_1":188,"Current_Stop":"Volgogradská","BUS_STOP_SUB_NUM_2":1,"BUS_STOP_NUM_2":187,"Next_Stop":"Clementisova","PLANNED_ROAD":350,"REAL_ROAD":119,"DELAY":-105,"VEHICLE_NUMBER":741,"Current_Time":1615122264099,"Current_Day":7,"Current_Hour":14,"Current_Minutes":4,"Current_Seconds":24},{"lon":21.23583,"lat":48.99774,"ROUTE_NUMBER":23,"DIRECTION":"P","BUS_STOP_ORDER_NUM":4,"BUS_STOP_NUM_1":532,"Current_Stop":"Floriánova","BUS_STOP_SUB_NUM_2":0,"BUS_STOP_NUM_2":156,"Next_Stop":"Poliklinika","PLANNED_ROAD":640,"REAL_ROAD":168,"DELAY":113,"VEHICLE_NUMBER":386,"Current_Time":1615122414146,"Current_Day":7,"Current_Hour":14,"Current_Minutes":6,"Current_Seconds":54},{"lon":21.244,"lat":48.99323,"ROUTE_NUMBER":4,"DIRECTION":"P","BUS_STOP_ORDER_NUM":10,"BUS_STOP_NUM_1":2,"Current_Stop":"Na Hlavnej","BUS_STOP_SUB_NUM_2":1,"BUS_STOP_NUM_2":3,"Next_Stop":"Veľká pošta","PLANNED_ROAD":555,"REAL_ROAD":358,"DELAY":-34,"VEHICLE_NUMBER":725,"Current_Time":1615122429144,"Current_Day":7,"Current_Hour":14,"Current_Minutes":7,"Current_Seconds":9},{"lon":21.23279,"lat":48.99322,"ROUTE_NUMBER":38,"DIRECTION":"P","BUS_STOP_ORDER_NUM":9,"BUS_STOP_NUM_1":198,"Current_Stop":"Duchnovičovo nám.","BUS_STOP_SUB_NUM_2":1,"BUS_STOP_NUM_2":199,"Next_Stop":"Prešovská univerzita","PLANNED_ROAD":441,"REAL_ROAD":17,"DELAY":-44,"VEHICLE_NUMBER":741,"Current_Time":1615122489155,"Current_Day":7,"Current_Hour":14,"Current_Minutes":8,"Current_Seconds":9},{"lon":21.23697,"lat":49.0139,"ROUTE_NUMBER":"5D","DIRECTION":"T","BUS_STOP_ORDER_NUM":10,"BUS_STOP_NUM_1":127,"Current_Stop":"Mičurinova","BUS_STOP_SUB_NUM_2":0,"BUS_STOP_NUM_2":128,"Next_Stop":"Pod Skalkou","PLANNED_ROAD":435,"REAL_ROAD":226,"DELAY":-25,"VEHICLE_NUMBER":733,"Current_Time":1615122489155,"Current_Day":7,"Current_Hour":14,"Current_Minutes":8,"Current_Seconds":9},{"lon":21.22418,"lat":49.00166,"ROUTE_NUMBER":8,"DIRECTION":"P","BUS_STOP_ORDER_NUM":7,"BUS_STOP_NUM_1":187,"Current_Stop":"Clementisova","BUS_STOP_SUB_NUM_2":1,"BUS_STOP_NUM_2":156,"Next_Stop":"Poliklinika","PLANNED_ROAD":1005,"REAL_ROAD":17,"DELAY":-18,"VEHICLE_NUMBER":742,"Current_Time":1615122519174,"Current_Day":7,"Current_Hour":14,"Current_Minutes":8,"Current_Seconds":39},