[{"lon":21.83458,"lat":48.67913,"ROUTE_NUMBER":"REX 1909 ","DELAY":480,"Current_Stop":"Bánovce nad Ondavou","From":"Košice","Destination":"Humenné","Direction":15,"Current_Time":1615136939641,"Current_Day":7,"Current_Hour":18,"Current_Minutes":8,"Current_Seconds":59},{"lon":21.83458,"lat":48.67913,"ROUTE_NUMBER":"REX 1909 ","DELAY":720,"Current_Stop":"Bánovce nad Ondavou","From":"Košice","Destination":"Humenné","Direction":15,"Current_Time":1615137209750,"Current_Day":7,"Current_Hour":18,"Current_Minutes":13,"Current_Seconds":29},{"lon":21.22393,"lat":48.85288,"ROUTE_NUMBER":"RR 17764 TATRAN","DELAY":360,"Current_Stop":"Kysak","From":"Košice","Destination":"Bratislava hlavná stanica","Direction":23,"Current_Time":1615137359806,"Current_Day":7,"Current_Hour":18,"Current_Minutes":15,"Current_Seconds":59},{"lon":22.218141,"lat":48.996219,"ROUTE_NUMBER":"Os 9430 ","DELAY":360,"Current_Stop":"Stakčín","From":"Stakčín","Destination":"Humenné","Direction":5,"Current_Time":1615138995394,"Current_Day":7,"Current_Hour":18,"Current_Minutes":43,"Current_Seconds":15},{"lon":21.48874,"lat":48.64368,"ROUTE_NUMBER":"REX 1914 ","DELAY":420,"Current_Stop":"Slanec","From":"Humenné","Destination":"Košice","Direction":10,"Current_Time":1615139070419,"Current_Day":7,"Current_Hour":18,"Current_Minutes":44,"Current_Seconds":30},{"lon":21.249126,"lat":48.983379,"ROUTE_NUMBER":"Os 8529 ","DELAY":300,"Current_Stop":"Prešov","From":"Čirč","Destination":"Košice","Direction":68,"Current_Time":1615139205482,"Current_Day":7,"Current_Hour":18,"Current_Minutes":46,"Current_Seconds":45},{"lon":21.24601,"lat":48.7958,"ROUTE_NUMBER":"Os 8528 ","DELAY":0,"Current_Stop":"Kostoľany nad Hornádom","From":"Košice","Destination":"Lipany","Direction":21,"Current_Time":1615139355507,"Current_Day":7,"Current_Hour":18,"Current_Minutes":49,"Current_Seconds":15},{"lon":21.32044,"lat":49.04386,"ROUTE_NUMBER":"Os 9128 ","DELAY":0,"Current_Stop":"Kapušany pri Prešove","From":"Humenné","Destination":"Prešov","Direction":3,"Current_Time":1615139970689,"Current_Day":7,"Current_Hour":18,"Current_Minutes":59,"Current_Seconds":30},{"lon":22.05519,"lat":48.95489,"ROUTE_NUMBER":"Os 9430 ","DELAY":0,"Current_Stop":"Dlhé nad Cirochou","From":"Stakčín","Destination":"Humenné","Direction":5,"Current_Time":1615140030705,"Current_Day":7,"Current_Hour":19,"Current_Minutes":0,"Current_Seconds":30},{"lon":22.05519,"lat":48.95489,"ROUTE_NUMBER":"Os 9431 ","DELAY":0,"Current_Stop":"Dlhé nad Cirochou","From":"Humenné","Destination":"Stakčín","Direction":6,"Current_Time":1615140150768,"Current_Day":7,"Current_Hour":19,"Current_Minutes":2,"Current_Seconds":30},{"lon":20.56151,"lat":48.95041,"ROUTE_NUMBER":"RR 17764 TATRAN","DELAY":420,"Current_Stop":"Spišská Nová Ves","From":"Košice","Destination":"Bratislava hlavná stanica","Direction":23,"Current_Time":1615140210768,"Current_Day":7,"Current_Hour":19,"Current_Minutes":3,"Current_Seconds":30},{"lon":21.31413,"lat":49.14945,"ROUTE_NUMBER":"Os 9229 ","DELAY":240,"Current_Stop":"Raslavice","From":"Prešov","Destination":"Bardejov","Direction":4,"Current_Time":1615140240782,"Current_Day":7,"Current_Hour":19,"Current_Minutes":4,"Current_Seconds":0},{"lon":21.31413,"lat":49.14945,"ROUTE_NUMBER":"Os 9228 ","DELAY":360,"Current_Stop":"Raslavice","From":"Bardejov","Destination":"Prešov","Direction":16,"Current_Time":1615140405869,"Current_Day":7,"Current_Hour":19,"Current_Minutes":6,"Current_Seconds":45},{"lon":20.81501,"lat":48.81167,"ROUTE_NUMBER":"Os 7428 ","DELAY":0,"Current_Stop":"Mníšek nad Hnilcom","From":"Margecany","Destination":"Nálepkovo","Direction":14,"Current_Time":1615140435870,"Current_Day":7,"Current_Hour":19,"Current_Minutes":7,"Current_Seconds":15},{"lon":20.81501,"lat":48.81167,"ROUTE_NUMBER":"Os 7428 ","DELAY":0,"Current_Stop":"Mníšek nad Hnilcom","From":"Margecany","Destination":"Nálepkovo","Direction":14,"Current_Time":1615140450897,"Current_Day":7,"Current_Hour":19,"Current_Minutes":7,"Current_Seconds":30},{"lon":20.68005,"lat":49.30834,"ROUTE_NUMBER":"Os 8332 ","DELAY":300,"Current_Stop":"Stará Ľubovňa","From":"Plaveč","Destination":"Poprad-Tatry","Direction":0,"Current_Time":1615140630969,"Current_Day":7,"Current_Hour":19,"Current_Minutes":10,"Current_Seconds":30},{"lon":20.52637,"lat":49.25529,"ROUTE_NUMBER":"Os 8332 ","DELAY":300,"Current_Stop":"Podolínec","From":"Plaveč","Destination":"Poprad-Tatry","Direction":0,"Current_Time":1615141606187,"Current_Day":7,"Current_Hour":19,"Current_Minutes":26,"Current_Seconds":46},{"lon":20.56151,"lat":48.95041,"ROUTE_NUMBER":"Os 7833 ","DELAY":420,"Current_Stop":"Spišská Nová Ves","From":"Poprad-Tatry","Destination":"Košice","Direction":17,"Current_Time":1615141891376,"Current_Day":7,"Current_Hour":19,"Current_Minutes":31,"Current_Seconds":31},{"lon":21.01324,"lat":48.89469,"ROUTE_NUMBER":"R 609 TATRAN","DELAY":60,"Current_Stop":"Margecany","From":"Bratislava hlavná stanica","Destination":"Košice","Direction":20,"Current_Time":1615142221385,"Current_Day":7,"Current_Hour":19,"Current_Minutes":37,"Current_Seconds":1},{"lon":21.01324,"lat":48.89469,"ROUTE_NUMBER":"R 609 TATRAN","DELAY":60,"Current_Stop":"Margecany","From":"Bratislava hlavná stanica","Destination":"Košice","Direction":20,"Current_Time":1615142236433,"Current_Day":7,"Current_Hour":19,"Current_Minutes":37,"Current_Seconds":16},{"lon":21.75188,"lat":48.85705,"ROUTE_NUMBER":"Os 9132 ","DELAY":-60,"Current_Stop":"Nižný Hrabovec","From":"Humenné","Destination":"Prešov","Direction":3,"Current_Time":1615143571739,"Current_Day":7,"Current_Hour":19,"Current_Minutes":59,"Current_Seconds":31},{"lon":21.57934,"lat":48.58169,"ROUTE_NUMBER":"Os 8831 ","DELAY":0,"Current_Stop":"Kuzmice","From":"Košice","Destination":"Čierna nad Tisou","Direction":8,"Current_Time":1615143751812,"Current_Day":7,"Current_Hour":20,"Current_Minutes":2,"Current_Seconds":31},{"lon":21.83458,"lat":48.67913,"ROUTE_NUMBER":"REX 1911 ","DELAY":300,"Current_Stop":"Bánovce nad Ondavou","From":"Košice","Destination":"Humenné","Direction":15,"Current_Time":1615144006808,"Current_Day":7,"Current_Hour":20,"Current_Minutes":6,"Current_Seconds":46},{"lon":21.89858,"lat":48.75074,"ROUTE_NUMBER":"REX 1911 ","DELAY":0,"Current_Stop":"Michalovce","From":"Košice","Destination":"Humenné","Direction":15,"Current_Time":1615144306899,"Current_Day":7,"Current_Hour":20,"Current_Minutes":11,"Current_Seconds":46},{"lon":20.52637,"lat":49.25529,"ROUTE_NUMBER":"Os 8331 ","DELAY":0,"Current_Stop":"Podolínec","From":"Poprad-Tatry","Destination":"Stará Ľubovňa","Direction":2,"Current_Time":1615145192163,"Current_Day":7,"Current_Hour":20,"Current_Minutes":26,"Current_Seconds":32},{"lon":20.56151,"lat":48.95041,"ROUTE_NUMBER":"Os 7830 ","DELAY":240,"Current_Stop":"Spišská Nová Ves","From":"Košice","Destination":"Svit","Direction":51,"Current_Time":1615146182467,"Current_Day":7,"Current_Hour":20,"Current_Minutes":43,"Current_Seconds":2},{"lon":21.0886,"lat":49.10324,"ROUTE_NUMBER":"Os 8530 ","DELAY":0,"Current_Stop":"Sabinov","From":"Košice","Destination":"Lipany","Direction":21,"Current_Time":1615146347496,"Current_Day":7,"Current_Hour":20,"Current_Minutes":45,"Current_Seconds":47},{"lon":21.99927,"lat":48.39944,"ROUTE_NUMBER":"Os 8831 ","DELAY":0,"Current_Stop":"Pribeník","From":"Košice","Destination":"Čierna nad Tisou","Direction":8,"Current_Time":1615146632559,"Current_Day":7,"Current_Hour":20,"Current_Minutes":50,"Current_Seconds":32},{"lon":20.56151,"lat":48.95041,"ROUTE_NUMBER":"R 611 TATRAN","DELAY":600,"Current_Stop":"Spišská Nová Ves","From":"Bratislava hlavná stanica","Destination":"Košice","Direction":20,"Current_Time":1615148316043,"Current_Day":7,"Current_Hour":21,"Current_Minutes":18,"Current_Seconds":36},{"lon":21.01324,"lat":48.89469,"ROUTE_NUMBER":"R 611 TATRAN","DELAY":480,"Current_Stop":"Margecany","From":"Bratislava hlavná stanica","Destination":"Košice","Direction":20,"Current_Time":1615149828366,"Current_Day":7,"Current_Hour":21,"Current_Minutes":43,"Current_Seconds":48},{"lon":21.22393,"lat":48.85288,"ROUTE_NUMBER":"Os 8554 ","DELAY":300,"Current_Stop":"Kysak","From":"Kysak","Destination":"Prešov","Direction":56,"Current_Time":1615150713656,"Current_Day":7,"Current_Hour":21,"Current_Minutes":58,"Current_Seconds":33},{"lon":21.241086,"lat":48.873332,"ROUTE_NUMBER":"Os 8533 ","DELAY":0,"Current_Stop":"Ličartovce","From":"Lipany","Destination":"Košice","Direction":18,"Current_Time":1615150728660,"Current_Day":7,"Current_Hour":21,"Current_Minutes":58,"Current_Seconds":48},{"lon":21.82483,"lat":48.86766,"ROUTE_NUMBER":"R 614 TATRAN ZEMPLÍN","DELAY":0,"Current_Stop":"Strážske","From":"Humenné","Destination":"Bratislava hlavná stanica","Direction":54,"Current_Time":1615151148860,"Current_Day":7,"Current_Hour":22,"Current_Minutes":5,"Current_Seconds":48},{"lon":21.01324,"lat":48.89469,"ROUTE_NUMBER":"Os 7834 ","DELAY":0,"Current_Stop":"Margecany","From":"Košice","Destination":"Spišská Nová Ves","Direction":55,"Current_Time":1615151148860,"Current_Day":7,"Current_Hour":22,"Current_Minutes":5,"Current_Seconds":48},{"lon":21.00288,"lat":48.60123,"ROUTE_NUMBER":"R 800 GEMERAN POĽANA","DELAY":-120,"Current_Stop":"Moldava nad Bodvou","From":"Prešov","Destination":"Bratislava-Nové Mesto","Direction":53,"Current_Time":1615152664434,"Current_Day":7,"Current_Hour":22,"Current_Minutes":31,"Current_Seconds":4},{"lon":21.83458,"lat":48.67913,"ROUTE_NUMBER":"R 614 TATRAN ZEMPLÍN","DELAY":360,"Current_Stop":"Bánovce nad Ondavou","From":"Humenné","Destination":"Bratislava hlavná stanica","Direction":54,"Current_Time":1615152754421,"Current_Day":7,"Current_Hour":22,"Current_Minutes":32,"Current_Seconds":34},{"lon":21.26872,"lat":48.72291,"ROUTE_NUMBER":"Os 6436 ","DELAY":300,"Current_Stop":"Košice","From":"Košice","Destination":"Moldava nad Bodvou mesto","Direction":35,"Current_Time":1615152754421,"Current_Day":7,"Current_Hour":22,"Current_Minutes":32,"Current_Seconds":34},{"lon":21.22393,"lat":48.85288,"ROUTE_NUMBER":"Os 8536 ","DELAY":420,"Current_Stop":"Kysak","From":"Košice","Destination":"Lipany","Direction":21,"Current_Time":1615153369587,"Current_Day":7,"Current_Hour":22,"Current_Minutes":42,"Current_Seconds":49},{"lon":21.90119,"lat":48.93015,"ROUTE_NUMBER":"Os 9135 ","DELAY":300,"Current_Stop":"Humenné","From":"Prešov","Destination":"Humenné","Direction":12,"Current_Time":1615154329833,"Current_Day":7,"Current_Hour":22,"Current_Minutes":58,"Current_Seconds":49},{"lon":21.26712,"lat":49.01659,"ROUTE_NUMBER":"Os 9141 ","DELAY":240,"Current_Stop":"Šarišské Lúky","From":"Prešov","Destination":"Vranov nad Topľou","Direction":60,"Current_Time":1615155635166,"Current_Day":7,"Current_Hour":23,"Current_Minutes":20,"Current_Seconds":35},{"lon":21.26712,"lat":49.01659,"ROUTE_NUMBER":"Os 9141 ","DELAY":240,"Current_Stop":"Šarišské Lúky","From":"Prešov","Destination":"Vranov nad Topľou","Direction":60,"Current_Time":1615155650128,"Current_Day":7,"Current_Hour":23,"Current_Minutes":20,"Current_Seconds":50},{"lon":22.172956,"lat":48.983733,"ROUTE_NUMBER":"Os 9439 ","DELAY":0,"Current_Stop":"Snina","From":"Humenné","Destination":"Stakčín","Direction":6,"Current_Time":1615156025206,"Current_Day":7,"Current_Hour":23,"Current_Minutes":27,"Current_Seconds":5},{"lon":21.26872,"lat":48.72291,"ROUTE_NUMBER":"R 614 TATRAN ZEMPLÍN","DELAY":0,"Current_Stop":"Košice","From":"Humenné","Destination":"Bratislava hlavná stanica","Direction":54,"Current_Time":1615156115235,"Current_Day":7,"Current_Hour":23,"Current_Minutes":28,"Current_Seconds":35},{"lon":20.56151,"lat":48.95041,"ROUTE_NUMBER":"Os 7873 ","DELAY":480,"Current_Stop":"Spišská Nová Ves","From":"Svit","Destination":"Margecany","Direction":61,"Current_Time":1615156325278,"Current_Day":7,"Current_Hour":23,"Current_Minutes":32,"Current_Seconds":5},{"lon":20.56151,"lat":48.95041,"ROUTE_NUMBER":"Os 7873 ","DELAY":480,"Current_Stop":"Spišská Nová Ves","From":"Svit","Destination":"Margecany","Direction":61,"Current_Time":1615156340282,"Current_Day":7,"Current_Hour":23,"Current_Minutes":32,"Current_Seconds":20},{"lon":21.01324,"lat":48.89469,"ROUTE_NUMBER":"R 613 TATRAN","DELAY":480,"Current_Stop":"Margecany","From":"Bratislava hlavná stanica","Destination":"Košice","Direction":20,"Current_Time":1615157045491,"Current_Day":7,"Current_Hour":23,"Current_Minutes":44,"Current_Seconds":5},{"lon":21.01324,"lat":48.89469,"ROUTE_NUMBER":"Os 7826 ","DELAY":480,"Current_Stop":"Margecany","From":"Košice","Destination":"Poprad-Tatry","Direction":9,"Current_Time":1615136669487,"Current_Day":7,"Current_Hour":18,"Current_Minutes":4,"Current_Seconds":29},{"lon":21.22393,"lat":48.85288,"ROUTE_NUMBER":"Os 8527 ","DELAY":480,"Current_Stop":"Kysak","From":"Lipany","Destination":"Košice","Direction":18,"Current_Time":1615137359806,"Current_Day":7,"Current_Hour":18,"Current_Minutes":15,"Current_Seconds":59},{"lon":21.90506,"lat":49.26186,"ROUTE_NUMBER":"Os 8928 ","DELAY":0,"Current_Stop":"Medzilaborce","From":"Medzilaborce mesto","Destination":"Humenné","Direction":1,"Current_Time":1615137749961,"Current_Day":7,"Current_Hour":18,"Current_Minutes":22,"Current_Seconds":29},{"lon":21.82483,"lat":48.86766,"ROUTE_NUMBER":"REX 1909 ","DELAY":0,"Current_Stop":"Strážske","From":"Košice","Destination":"Humenné","Direction":15,"Current_Time":1615137960011,"Current_Day":7,"Current_Hour":18,"Current_Minutes":26,"Current_Seconds":0},{"lon":21.26872,"lat":48.72291,"ROUTE_NUMBER":"Os 6428 ","DELAY":360,"Current_Stop":"Košice","From":"Košice","Destination":"Moldava nad Bodvou mesto","Direction":35,"Current_Time":1615138530239,"Current_Day":7,"Current_Hour":18,"Current_Minutes":35,"Current_Seconds":30},{"lon":22.218141,"lat":48.996219,"ROUTE_NUMBER":"Os 9430 ","DELAY":420,"Current_Stop":"Stakčín","From":"Stakčín","Destination":"Humenné","Direction":5,"Current_Time":1615139010404,"Current_Day":7,"Current_Hour":18,"Current_Minutes":43,"Current_Seconds":30},{"lon":21.48874,"lat":48.64368,"ROUTE_NUMBER":"REX 1914 ","DELAY":420,"Current_Stop":"Slanec","From":"Humenné","Destination":"Košice","Direction":10,"Current_Time":1615139085493,"Current_Day":7,"Current_Hour":18,"Current_Minutes":44,"Current_Seconds":45},{"lon":21.249126,"lat":48.983379,"ROUTE_NUMBER":"Os 8529 ","DELAY":300,"Current_Stop":"Prešov","From":"Čirč","Destination":"Košice","Direction":68,"Current_Time":1615139190448,"Current_Day":7,"Current_Hour":18,"Current_Minutes":46,"Current_Seconds":30},{"lon":21.0886,"lat":49.10324,"ROUTE_NUMBER":"Os 8526 ","DELAY":360,"Current_Stop":"Sabinov","From":"Košice","Destination":"Lipany","Direction":21,"Current_Time":1615139565644,"Current_Day":7,"Current_Hour":18,"Current_Minutes":52,"Current_Seconds":45},{"lon":20.88565,"lat":48.82017,"ROUTE_NUMBER":"Os 7428 ","DELAY":0,"Current_Stop":"Prakovce","From":"Margecany","Destination":"Nálepkovo","Direction":14,"Current_Time":1615139730612,"Current_Day":7,"Current_Hour":18,"Current_Minutes":55,"Current_Seconds":30},{"lon":21.241086,"lat":48.873332,"ROUTE_NUMBER":"Os 8529 ","DELAY":360,"Current_Stop":"Ličartovce","From":"Čirč","Destination":"Košice","Direction":68,"Current_Time":1615140390886,"Current_Day":7,"Current_Hour":19,"Current_Minutes":6,"Current_Seconds":30},{"lon":21.31413,"lat":49.14945,"ROUTE_NUMBER":"Os 9228 ","DELAY":360,"Current_Stop":"Raslavice","From":"Bardejov","Destination":"Prešov","Direction":16,"Current_Time":1615140390886,"Current_Day":7,"Current_Hour":19,"Current_Minutes":6,"Current_Seconds":30},{"lon":21.6262,"lat":48.52172,"ROUTE_NUMBER":"Os 8830 ","DELAY":240,"Current_Stop":"Michaľany","From":"Čierna nad Tisou","Destination":"Košice","Direction":25,"Current_Time":1615140780999,"Current_Day":7,"Current_Hour":19,"Current_Minutes":13,"Current_Seconds":0},{"lon":21.20295,"lat":49.04477,"ROUTE_NUMBER":"Os 8528 ","DELAY":240,"Current_Stop":"Veľký Šariš","From":"Košice","Destination":"Lipany","Direction":21,"Current_Time":1615142101387,"Current_Day":7,"Current_Hour":19,"Current_Minutes":35,"Current_Seconds":1},{"lon":21.22393,"lat":48.85288,"ROUTE_NUMBER":"Os 7830 ","DELAY":300,"Current_Stop":"Kysak","From":"Košice","Destination":"Svit","Direction":51,"Current_Time":1615142386421,"Current_Day":7,"Current_Hour":19,"Current_Minutes":39,"Current_Seconds":46},{"lon":21.22393,"lat":48.85288,"ROUTE_NUMBER":"R 609 TATRAN","DELAY":180,"Current_Stop":"Kysak","From":"Bratislava hlavná stanica","Destination":"Košice","Direction":20,"Current_Time":1615143196648,"Current_Day":7,"Current_Hour":19,"Current_Minutes":53,"Current_Seconds":16},{"lon":21.75188,"lat":48.85705,"ROUTE_NUMBER":"Os 9131 ","DELAY":0,"Current_Stop":"Nižný Hrabovec","From":"Prešov","Destination":"Humenné","Direction":12,"Current_Time":1615143511707,"Current_Day":7,"Current_Hour":19,"Current_Minutes":58,"Current_Seconds":31},{"lon":20.94725,"lat":48.85834,"ROUTE_NUMBER":"Os 7454 ","DELAY":0,"Current_Stop":"Gelnica","From":"Margecany","Destination":"Dobšinská Ľadová Jaskyňa","Direction":64,"Current_Time":1615145702320,"Current_Day":7,"Current_Hour":20,"Current_Minutes":35,"Current_Seconds":2},{"lon":21.0886,"lat":49.10324,"ROUTE_NUMBER":"Os 8530 ","DELAY":0,"Current_Stop":"Sabinov","From":"Košice","Destination":"Lipany","Direction":21,"Current_Time":1615146332498,"Current_Day":7,"Current_Hour":20,"Current_Minutes":45,"Current_Seconds":32},{"lon":21.40544,"lat":49.04906,"ROUTE_NUMBER":"Os 9132 ","DELAY":0,"Current_Stop":"Lipníky","From":"Humenné","Destination":"Prešov","Direction":3,"Current_Time":1615146602540,"Current_Day":7,"Current_Hour":20,"Current_Minutes":50,"Current_Seconds":2},{"lon":21.57934,"lat":48.58169,"ROUTE_NUMBER":"Os 8834 ","DELAY":0,"Current_Stop":"Kuzmice","From":"Čierna nad Tisou","Destination":"Košice","Direction":25,"Current_Time":1615146977605,"Current_Day":7,"Current_Hour":20,"Current_Minutes":56,"Current_Seconds":17},{"lon":21.20295,"lat":49.04477,"ROUTE_NUMBER":"Os 8533 ","DELAY":0,"Current_Stop":"Veľký Šariš","From":"Lipany","Destination":"Košice","Direction":18,"Current_Time":1615147172690,"Current_Day":7,"Current_Hour":20,"Current_Minutes":59,"Current_Seconds":32},{"lon":21.26872,"lat":48.72291,"ROUTE_NUMBER":"EN 442 Slovakia","DELAY":0,"Current_Stop":"Košice","From":"Humenné","Destination":"Žilina","Direction":50,"Current_Time":1615147292673,"Current_Day":7,"Current_Hour":21,"Current_Minutes":1,"Current_Seconds":32},{"lon":21.26872,"lat":48.72291,"ROUTE_NUMBER":"R 800 GEMERAN POĽANA","DELAY":0,"Current_Stop":"Košice","From":"Prešov","Destination":"Bratislava-Nové Mesto","Direction":53,"Current_Time":1615149933389,"Current_Day":7,"Current_Hour":21,"Current_Minutes":45,"Current_Seconds":33},{"lon":21.90119,"lat":48.93015,"ROUTE_NUMBER":"R 614 TATRAN ZEMPLÍN","DELAY":300,"Current_Stop":"Humenné","From":"Humenné","Destination":"Bratislava hlavná stanica","Direction":54,"Current_Time":1615150848817,"Current_Day":7,"Current_Hour":22,"Current_Minutes":0,"Current_Seconds":48},{"lon":21.82483,"lat":48.86766,"ROUTE_NUMBER":"R 614 TATRAN ZEMPLÍN","DELAY":0,"Current_Stop":"Strážske","From":"Humenné","Destination":"Bratislava hlavná stanica","Direction":54,"Current_Time":1615151103842,"Current_Day":7,"Current_Hour":22,"Current_Minutes":5,"Current_Seconds":3},{"lon":21.83458,"lat":48.67913,"ROUTE_NUMBER":"REX 1913 ","DELAY":300,"Current_Stop":"Bánovce nad Ondavou","From":"Košice","Destination":"Humenné","Direction":15,"Current_Time":1615151193905,"Current_Day":7,"Current_Hour":22,"Current_Minutes":6,"Current_Seconds":33},{"lon":21.89858,"lat":48.75074,"ROUTE_NUMBER":"REX 1913 ","DELAY":0,"Current_Stop":"Michalovce","From":"Košice","Destination":"Humenné","Direction":15,"Current_Time":1615151553979,"Current_Day":7,"Current_Hour":22,"Current_Minutes":12,"Current_Seconds":33},{"lon":21.24601,"lat":48.7958,"ROUTE_NUMBER":"Os 8533 ","DELAY":660,"Current_Stop":"Kostoľany nad Hornádom","From":"Lipany","Destination":"Košice","Direction":18,"Current_Time":1615152274267,"Current_Day":7,"Current_Hour":22,"Current_Minutes":24,"Current_Seconds":34},{"lon":21.01324,"lat":48.89469,"ROUTE_NUMBER":"EN 442 Slovakia","DELAY":180,"Current_Stop":"Margecany","From":"Humenné","Destination":"Žilina","Direction":50,"Current_Time":1615152574624,"Current_Day":7,"Current_Hour":22,"Current_Minutes":29,"Current_Seconds":34},{"lon":21.01324,"lat":48.89469,"ROUTE_NUMBER":"EN 442 Slovakia","DELAY":180,"Current_Stop":"Margecany","From":"Humenné","Destination":"Žilina","Direction":50,"Current_Time":1615152589397,"Current_Day":7,"Current_Hour":22,"Current_Minutes":29,"Current_Seconds":49},{"lon":21.71184,"lat":48.63306,"ROUTE_NUMBER":"R 614 TATRAN ZEMPLÍN","DELAY":0,"Current_Stop":"Trebišov","From":"Humenné","Destination":"Bratislava hlavná stanica","Direction":54,"Current_Time":1615153114519,"Current_Day":7,"Current_Hour":22,"Current_Minutes":38,"Current_Seconds":34},{"lon":21.01324,"lat":48.89469,"ROUTE_NUMBER":"R 613 TATRAN","DELAY":480,"Current_Stop":"Margecany","From":"Bratislava hlavná stanica","Destination":"Košice","Direction":20,"Current_Time":1615157060490,"Current_Day":7,"Current_Hour":23,"Current_Minutes":44,"Current_Seconds":20},{"lon":20.80377,"lat":48.93557,"ROUTE_NUMBER":"Os 7873 ","DELAY":240,"Current_Stop":"Spišské Vlachy","From":"Svit","Destination":"Margecany","Direction":61,"Current_Time":1615157795712,"Current_Day":7,"Current_Hour":23,"Current_Minutes":56,"Current_Seconds":35},{"lon":21.83458,"lat":48.67913,"ROUTE_NUMBER":"REX 1915 ","DELAY":420,"Current_Stop":"Bánovce nad Ondavou","From":"Košice","Destination":"Humenné","Direction":15,"Current_Time":1615158996188,"Current_Day":8,"Current_Hour":0,"Current_Minutes":16,"Current_Seconds":36},{"lon":21.83458,"lat":48.67913,"ROUTE_NUMBER":"REX 1915 ","DELAY":420,"Current_Stop":"Bánovce nad Ondavou","From":"Košice","Destination":"Humenné","Direction":15,"Current_Time":1615159011225,"Current_Day":8,"Current_Hour":0,"Current_Minutes":16,"Current_Seconds":51},{"lon":20.88621,"lat":48.92171,"ROUTE_NUMBER":"R 614 TATRAN ZEMPLÍN","DELAY":600,"Current_Stop":"Krompachy","From":"Humenné","Destination":"Bratislava hlavná stanica","Direction":54,"Current_Time":1615159971435,"Current_Day":8,"Current_Hour":0,"Current_Minutes":32,"Current_Seconds":51},{"lon":21.249126,"lat":48.983379,"ROUTE_NUMBER":"Os 9229 ","DELAY":300,"Current_Stop":"Prešov","From":"Prešov","Destination":"Bardejov","Direction":4,"Current_Time":1615138260101,"Current_Day":7,"Current_Hour":18,"Current_Minutes":31,"Current_Seconds":0},{"lon":21.01324,"lat":48.89469,"ROUTE_NUMBER":"RR 17764 TATRAN","DELAY":240,"Current_Stop":"Margecany","From":"Košice","Destination":"Bratislava hlavná stanica","Direction":23,"Current_Time":1615138320117,"Current_Day":7,"Current_Hour":18,"Current_Minutes":32,"Current_Seconds":0},{"lon":21.241086,"lat":48.873332,"ROUTE_NUMBER":"Os 8528 ","DELAY":240,"Current_Stop":"Ličartovce","From":"Košice","Destination":"Lipany","Direction":21,"Current_Time":1615140240782,"Current_Day":7,"Current_Hour":19,"Current_Minutes":4,"Current_Seconds":0},{"lon":21.241086,"lat":48.873332,"ROUTE_NUMBER":"Os 8528 ","DELAY":240,"Current_Stop":"Ličartovce","From":"Košice","Destination":"Lipany","Direction":21,"Current_Time":1615140270783,"Current_Day":7,"Current_Hour":19,"Current_Minutes":4,"Current_Seconds":30},{"lon":21.241086,"lat":48.873332,"ROUTE_NUMBER":"Os 8529 ","DELAY":360,"Current_Stop":"Ličartovce","From":"Čirč","Destination":"Košice","Direction":68,"Current_Time":1615140360828,"Current_Day":7,"Current_Hour":19,"Current_Minutes":6,"Current_Seconds":0},{"lon":22.172956,"lat":48.983733,"ROUTE_NUMBER":"Os 9431 ","DELAY":0,"Current_Stop":"Snina","From":"Humenné","Destination":"Stakčín","Direction":6,"Current_Time":1615141276147,"Current_Day":7,"Current_Hour":19,"Current_Minutes":21,"Current_Seconds":16},{"lon":21.22393,"lat":48.85288,"ROUTE_NUMBER":"Os 7830 ","DELAY":300,"Current_Stop":"Kysak","From":"Košice","Destination":"Svit","Direction":51,"Current_Time":1615142371414,"Current_Day":7,"Current_Hour":19,"Current_Minutes":39,"Current_Seconds":31},{"lon":21.0886,"lat":49.10324,"ROUTE_NUMBER":"Os 8528 ","DELAY":240,"Current_Stop":"Sabinov","From":"Košice","Destination":"Lipany","Direction":21,"Current_Time":1615142851556,"Current_Day":7,"Current_Hour":19,"Current_Minutes":47,"Current_Seconds":31},{"lon":21.71184,"lat":48.63306,"ROUTE_NUMBER":"REX 1911 ","DELAY":60,"Current_Stop":"Trebišov","From":"Košice","Destination":"Humenné","Direction":15,"Current_Time":1615143181651,"Current_Day":7,"Current_Hour":19,"Current_Minutes":53,"Current_Seconds":1},{"lon":21.22393,"lat":48.85288,"ROUTE_NUMBER":"R 609 TATRAN","DELAY":180,"Current_Stop":"Kysak","From":"Bratislava hlavná stanica","Destination":"Košice","Direction":20,"Current_Time":1615143181651,"Current_Day":7,"Current_Hour":19,"Current_Minutes":53,"Current_Seconds":1},{"lon":21.89858,"lat":48.75074,"ROUTE_NUMBER":"EN 442 Slovakia","DELAY":0,"Current_Stop":"Michalovce","From":"Humenné","Destination":"Žilina","Direction":50,"Current_Time":1615143196648,"Current_Day":7,"Current_Hour":19,"Current_Minutes":53,"Current_Seconds":16},{"lon":21.57934,"lat":48.58169,"ROUTE_NUMBER":"Os 8831 ","DELAY":0,"Current_Stop":"Kuzmice","From":"Košice","Destination":"Čierna nad Tisou","Direction":8,"Current_Time":1615143766778,"Current_Day":7,"Current_Hour":20,"Current_Minutes":2,"Current_Seconds":46},{"lon":21.83458,"lat":48.67913,"ROUTE_NUMBER":"REX 1911 ","DELAY":600,"Current_Stop":"Bánovce nad Ondavou","From":"Košice","Destination":"Humenné","Direction":15,"Current_Time":1615144276897,"Current_Day":7,"Current_Hour":20,"Current_Minutes":11,"Current_Seconds":16},{"lon":21.90506,"lat":49.26186,"ROUTE_NUMBER":"Os 8932 ","DELAY":0,"Current_Stop":"Medzilaborce","From":"Medzilaborce mesto","Destination":"Humenné","Direction":1,"Current_Time":1615144922032,"Current_Day":7,"Current_Hour":20,"Current_Minutes":22,"Current_Seconds":2},{"lon":21.90506,"lat":49.26186,"ROUTE_NUMBER":"Os 8932 ","DELAY":0,"Current_Stop":"Medzilaborce","From":"Medzilaborce mesto","Destination":"Humenné","Direction":1,"Current_Time":1615144952048,"Current_Day":7,"Current_Hour":20,"Current_Minutes":22,"Current_Seconds":32},{"lon":22.05519,"lat":48.95489,"ROUTE_NUMBER":"Os 9435 ","DELAY":0,"Current_Stop":"Dlhé nad Cirochou","From":"Humenné","Destination":"Stakčín","Direction":6,"Current_Time":1615147352703,"Current_Day":7,"Current_Hour":21,"Current_Minutes":2,"Current_Seconds":32},{"lon":21.249126,"lat":48.983379,"ROUTE_NUMBER":"Os 8533 ","DELAY":0,"Current_Stop":"Prešov","From":"Lipany","Destination":"Košice","Direction":18,"Current_Time":1615147742809,"Current_Day":7,"Current_Hour":21,"Current_Minutes":9,"Current_Seconds":2},{"lon":21.01324,"lat":48.89469,"ROUTE_NUMBER":"R 611 TATRAN","DELAY":480,"Current_Stop":"Margecany","From":"Bratislava hlavná stanica","Destination":"Košice","Direction":20,"Current_Time":1615149813359,"Current_Day":7,"Current_Hour":21,"Current_Minutes":43,"Current_Seconds":33},{"lon":21.22393,"lat":48.85288,"ROUTE_NUMBER":"R 611 TATRAN","DELAY":420,"Current_Stop":"Kysak","From":"Bratislava hlavná stanica","Destination":"Košice","Direction":20,"Current_Time":1615150683647,"Current_Day":7,"Current_Hour":21,"Current_Minutes":58,"Current_Seconds":3},{"lon":21.241086,"lat":48.873332,"ROUTE_NUMBER":"Os 8533 ","DELAY":0,"Current_Stop":"Ličartovce","From":"Lipany","Destination":"Košice","Direction":18,"Current_Time":1615150713656,"Current_Day":7,"Current_Hour":21,"Current_Minutes":58,"Current_Seconds":33},{"lon":21.22393,"lat":48.85288,"ROUTE_NUMBER":"EN 442 Slovakia","DELAY":120,"Current_Stop":"Kysak","From":"Humenné","Destination":"Žilina","Direction":50,"Current_Time":1615151538978,"Current_Day":7,"Current_Hour":22,"Current_Minutes":12,"Current_Seconds":18},{"lon":21.83458,"lat":48.67913,"ROUTE_NUMBER":"REX 1913 ","DELAY":660,"Current_Stop":"Bánovce nad Ondavou","From":"Košice","Destination":"Humenné","Direction":15,"Current_Time":1615151538978,"Current_Day":7,"Current_Hour":22,"Current_Minutes":12,"Current_Seconds":18},{"lon":21.22393,"lat":48.85288,"ROUTE_NUMBER":"EN 442 Slovakia","DELAY":120,"Current_Stop":"Kysak","From":"Humenné","Destination":"Žilina","Direction":50,"Current_Time":1615151553979,"Current_Day":7,"Current_Hour":22,"Current_Minutes":12,"Current_Seconds":33},{"lon":21.89858,"lat":48.75074,"ROUTE_NUMBER":"REX 1913 ","DELAY":0,"Current_Stop":"Michalovce","From":"Košice","Destination":"Humenné","Direction":15,"Current_Time":1615151568993,"Current_Day":7,"Current_Hour":22,"Current_Minutes":12,"Current_Seconds":48},{"lon":21.71184,"lat":48.63306,"ROUTE_NUMBER":"R 614 TATRAN ZEMPLÍN","DELAY":0,"Current_Stop":"Trebišov","From":"Humenné","Destination":"Bratislava hlavná stanica","Direction":54,"Current_Time":1615153129510,"Current_Day":7,"Current_Hour":22,"Current_Minutes":38,"Current_Seconds":49},{"lon":20.56151,"lat":48.95041,"ROUTE_NUMBER":"EN 442 Slovakia","DELAY":240,"Current_Stop":"Spišská Nová Ves","From":"Humenné","Destination":"Žilina","Direction":50,"Current_Time":1615154254819,"Current_Day":7,"Current_Hour":22,"Current_Minutes":57,"Current_Seconds":34},{"lon":22.05519,"lat":48.95489,"ROUTE_NUMBER":"Os 9438 ","DELAY":0,"Current_Stop":"Dlhé nad Cirochou","From":"Stakčín","Destination":"Humenné","Direction":5,"Current_Time":1615154854954,"Current_Day":7,"Current_Hour":23,"Current_Minutes":7,"Current_Seconds":34},{"lon":21.00288,"lat":48.60123,"ROUTE_NUMBER":"Os 6436 ","DELAY":60,"Current_Stop":"Moldava nad Bodvou","From":"Košice","Destination":"Moldava nad Bodvou mesto","Direction":35,"Current_Time":1615154929978,"Current_Day":7,"Current_Hour":23,"Current_Minutes":8,"Current_Seconds":49},{"lon":20.51402,"lat":48.63529,"ROUTE_NUMBER":"R 800 GEMERAN POĽANA","DELAY":-240,"Current_Stop":"Rožňava","From":"Prešov","Destination":"Bratislava-Nové Mesto","Direction":53,"Current_Time":1615155034991,"Current_Day":7,"Current_Hour":23,"Current_Minutes":10,"Current_Seconds":34},{"lon":20.88565,"lat":48.82017,"ROUTE_NUMBER":"Os 7436 ","DELAY":0,"Current_Stop":"Prakovce","From":"Margecany","Destination":"Nálepkovo","Direction":14,"Current_Time":1615155245088,"Current_Day":7,"Current_Hour":23,"Current_Minutes":14,"Current_Seconds":5},{"lon":21.32044,"lat":49.04386,"ROUTE_NUMBER":"Os 9141 ","DELAY":360,"Current_Stop":"Kapušany pri Prešove","From":"Prešov","Destination":"Vranov nad Topľou","Direction":60,"Current_Time":1615156085222,"Current_Day":7,"Current_Hour":23,"Current_Minutes":28,"Current_Seconds":5},{"lon":21.6674,"lat":48.40282,"ROUTE_NUMBER":"Os 8839 ","DELAY":180,"Current_Stop":"Slovenské Nové Mesto","From":"Košice","Destination":"Čierna nad Tisou","Direction":8,"Current_Time":1615159386312,"Current_Day":8,"Current_Hour":0,"Current_Minutes":23,"Current_Seconds":6},{"lon":21.6674,"lat":48.40282,"ROUTE_NUMBER":"Os 8839 ","DELAY":180,"Current_Stop":"Slovenské Nové Mesto","From":"Košice","Destination":"Čierna nad Tisou","Direction":8,"Current_Time":1615159401331,"Current_Day":8,"Current_Hour":0,"Current_Minutes":23,"Current_Seconds":21},{"lon":20.51402,"lat":48.63529,"ROUTE_NUMBER":"R 813 GEMERAN","DELAY":1620,"Current_Stop":"Rožňava","From":"Bratislava hlavná stanica","Destination":"Košice","Direction":20,"Current_Time":1615136699496,"Current_Day":7,"Current_Hour":18,"Current_Minutes":4,"Current_Seconds":59},{"lon":21.83458,"lat":48.67913,"ROUTE_NUMBER":"REX 1914 ","DELAY":300,"Current_Stop":"Bánovce nad Ondavou","From":"Humenné","Destination":"Košice","Direction":10,"Current_Time":1615136819564,"Current_Day":7,"Current_Hour":18,"Current_Minutes":6,"Current_Seconds":59},{"lon":21.83458,"lat":48.67913,"ROUTE_NUMBER":"REX 1909 ","DELAY":720,"Current_Stop":"Bánovce nad Ondavou","From":"Košice","Destination":"Humenné","Direction":15,"Current_Time":1615137224835,"Current_Day":7,"Current_Hour":18,"Current_Minutes":13,"Current_Seconds":44},{"lon":21.89858,"lat":48.75074,"ROUTE_NUMBER":"REX 1909 ","DELAY":120,"Current_Stop":"Michalovce","From":"Košice","Destination":"Humenné","Direction":15,"Current_Time":1615137239760,"Current_Day":7,"Current_Hour":18,"Current_Minutes":13,"Current_Seconds":59},{"lon":21.90506,"lat":49.26186,"ROUTE_NUMBER":"Os 8928 ","DELAY":0,"Current_Stop":"Medzilaborce","From":"Medzilaborce mesto","Destination":"Humenné","Direction":1,"Current_Time":1615137779966,"Current_Day":7,"Current_Hour":18,"Current_Minutes":22,"Current_Seconds":59},{"lon":21.249126,"lat":48.983379,"ROUTE_NUMBER":"Os 8526 ","DELAY":540,"Current_Stop":"Prešov","From":"Košice","Destination":"Lipany","Direction":21,"Current_Time":1615137960011,"Current_Day":7,"Current_Hour":18,"Current_Minutes":26,"Current_Seconds":0},{"lon":21.82483,"lat":48.86766,"ROUTE_NUMBER":"REX 1909 ","DELAY":0,"Current_Stop":"Strážske","From":"Košice","Destination":"Humenné","Direction":15,"Current_Time":1615137975014,"Current_Day":7,"Current_Hour":18,"Current_Minutes":26,"Current_Seconds":15},{"lon":21.249126,"lat":48.983379,"ROUTE_NUMBER":"Os 8526 ","DELAY":540,"Current_Stop":"Prešov","From":"Košice","Destination":"Lipany","Direction":21,"Current_Time":1615137975014,"Current_Day":7,"Current_Hour":18,"Current_Minutes":26,"Current_Seconds":15},{"lon":21.20295,"lat":49.04477,"ROUTE_NUMBER":"Os 8529 ","DELAY":0,"Current_Stop":"Veľký Šariš","From":"Čirč","Destination":"Košice","Direction":68,"Current_Time":1615138335193,"Current_Day":7,"Current_Hour":18,"Current_Minutes":32,"Current_Seconds":15},{"lon":21.26872,"lat":48.72291,"ROUTE_NUMBER":"Os 6428 ","DELAY":300,"Current_Stop":"Košice","From":"Košice","Destination":"Moldava nad Bodvou mesto","Direction":35,"Current_Time":1615138500241,"Current_Day":7,"Current_Hour":18,"Current_Minutes":35,"Current_Seconds":0},{"lon":21.26872,"lat":48.72291,"ROUTE_NUMBER":"Os 6428 ","DELAY":360,"Current_Stop":"Košice","From":"Košice","Destination":"Moldava nad Bodvou mesto","Direction":35,"Current_Time":1615138545287,"Current_Day":7,"Current_Hour":18,"Current_Minutes":35,"Current_Seconds":45},{"lon":21.22393,"lat":48.85288,"ROUTE_NUMBER":"Os 8528 ","DELAY":300,"Current_Stop":"Kysak","From":"Košice","Destination":"Lipany","Direction":21,"Current_Time":1615139880643,"Current_Day":7,"Current_Hour":18,"Current_Minutes":58,"Current_Seconds":0},{"lon":21.32044,"lat":49.04386,"ROUTE_NUMBER":"Os 9131 ","DELAY":60,"Current_Stop":"Kapušany pri Prešove","From":"Prešov","Destination":"Humenné","Direction":12,"Current_Time":1615140090737,"Current_Day":7,"Current_Hour":19,"Current_Minutes":1,"Current_Seconds":30},{"lon":21.31413,"lat":49.14945,"ROUTE_NUMBER":"Os 9229 ","DELAY":240,"Current_Stop":"Raslavice","From":"Prešov","Destination":"Bardejov","Direction":4,"Current_Time":1615140255787,"Current_Day":7,"Current_Hour":19,"Current_Minutes":4,"Current_Seconds":15},{"lon":20.81501,"lat":48.81167,"ROUTE_NUMBER":"Os 7428 ","DELAY":0,"Current_Stop":"Mníšek nad Hnilcom","From":"Margecany","Destination":"Nálepkovo","Direction":14,"Current_Time":1615140420900,"Current_Day":7,"Current_Hour":19,"Current_Minutes":7,"Current_Seconds":0},{"lon":20.81501,"lat":48.81167,"ROUTE_NUMBER":"Os 7428 ","DELAY":0,"Current_Stop":"Mníšek nad Hnilcom","From":"Margecany","Destination":"Nálepkovo","Direction":14,"Current_Time":1615140465869,"Current_Day":7,"Current_Hour":19,"Current_Minutes":7,"Current_Seconds":45},{"lon":21.249126,"lat":48.983379,"ROUTE_NUMBER":"Os 8528 ","DELAY":420,"Current_Stop":"Prešov","From":"Košice","Destination":"Lipany","Direction":21,"Current_Time":1615141456145,"Current_Day":7,"Current_Hour":19,"Current_Minutes":24,"Current_Seconds":16},{"lon":21.90506,"lat":49.26186,"ROUTE_NUMBER":"Os 8931 ","DELAY":0,"Current_Stop":"Medzilaborce","From":"Humenné","Destination":"Medzilaborce mesto","Direction":13,"Current_Time":1615142971571,"Current_Day":7,"Current_Hour":19,"Current_Minutes":49,"Current_Seconds":31},{"lon":21.82483,"lat":48.86766,"ROUTE_NUMBER":"Os 9132 ","DELAY":0,"Current_Stop":"Strážske","From":"Humenné","Destination":"Prešov","Direction":3,"Current_Time":1615143091635,"Current_Day":7,"Current_Hour":19,"Current_Minutes":51,"Current_Seconds":31},{"lon":21.01324,"lat":48.89469,"ROUTE_NUMBER":"Os 7830 ","DELAY":180,"Current_Stop":"Margecany","From":"Košice","Destination":"Svit","Direction":51,"Current_Time":1615143586735,"Current_Day":7,"Current_Hour":19,"Current_Minutes":59,"Current_Seconds":46},{"lon":21.75188,"lat":48.85705,"ROUTE_NUMBER":"Os 9132 ","DELAY":-60,"Current_Stop":"Nižný Hrabovec","From":"Humenné","Destination":"Prešov","Direction":3,"Current_Time":1615143586735,"Current_Day":7,"Current_Hour":19,"Current_Minutes":59,"Current_Seconds":46},{"lon":21.241086,"lat":48.873332,"ROUTE_NUMBER":"Os 8555 ","DELAY":0,"Current_Stop":"Ličartovce","From":"Prešov","Destination":"Kysak","Direction":29,"Current_Time":1615143631752,"Current_Day":7,"Current_Hour":20,"Current_Minutes":0,"Current_Seconds":31},{"lon":21.83458,"lat":48.67913,"ROUTE_NUMBER":"EN 442 Slovakia","DELAY":360,"Current_Stop":"Bánovce nad Ondavou","From":"Humenné","Destination":"Žilina","Direction":50,"Current_Time":1615144111853,"Current_Day":7,"Current_Hour":20,"Current_Minutes":8,"Current_Seconds":31},{"lon":21.01324,"lat":48.89469,"ROUTE_NUMBER":"Os 7833 ","DELAY":180,"Current_Stop":"Margecany","From":"Poprad-Tatry","Destination":"Košice","Direction":17,"Current_Time":1615144291940,"Current_Day":7,"Current_Hour":20,"Current_Minutes":11,"Current_Seconds":31},{"lon":21.249126,"lat":48.983379,"ROUTE_NUMBER":"Os 8530 ","DELAY":240,"Current_Stop":"Prešov","From":"Košice","Destination":"Lipany","Direction":21,"Current_Time":1615144877035,"Current_Day":7,"Current_Hour":20,"Current_Minutes":21,"Current_Seconds":17},{"lon":21.20295,"lat":49.04477,"ROUTE_NUMBER":"Os 8530 ","DELAY":60,"Current_Stop":"Veľký Šariš","From":"Košice","Destination":"Lipany","Direction":21,"Current_Time":1615145552275,"Current_Day":7,"Current_Hour":20,"Current_Minutes":32,"Current_Seconds":32},{"lon":20.81501,"lat":48.81167,"ROUTE_NUMBER":"Os 7455 ","DELAY":0,"Current_Stop":"Mníšek nad Hnilcom","From":"Dobšinská Ľadová Jaskyňa","Destination":"Margecany","Direction":33,"Current_Time":1615146152483,"Current_Day":7,"Current_Hour":20,"Current_Minutes":42,"Current_Seconds":32},{"lon":22.05519,"lat":48.95489,"ROUTE_NUMBER":"Os 9434 ","DELAY":0,"Current_Stop":"Dlhé nad Cirochou","From":"Stakčín","Destination":"Humenné","Direction":5,"Current_Time":1615147232701,"Current_Day":7,"Current_Hour":21,"Current_Minutes":0,"Current_Seconds":32},{"lon":21.01324,"lat":48.89469,"ROUTE_NUMBER":"Os 7834 ","DELAY":0,"Current_Stop":"Margecany","From":"Košice","Destination":"Spišská Nová Ves","Direction":55,"Current_Time":1615151133852,"Current_Day":7,"Current_Hour":22,"Current_Minutes":5,"Current_Seconds":33},{"lon":21.22393,"lat":48.85288,"ROUTE_NUMBER":"EN 442 Slovakia","DELAY":120,"Current_Stop":"Kysak","From":"Humenné","Destination":"Žilina","Direction":50,"Current_Time":1615151568993,"Current_Day":7,"Current_Hour":22,"Current_Minutes":12,"Current_Seconds":48},{"lon":21.82483,"lat":48.86766,"ROUTE_NUMBER":"Os 9135 ","DELAY":0,"Current_Stop":"Strážske","From":"Prešov","Destination":"Humenné","Direction":12,"Current_Time":1615152514364,"Current_Day":7,"Current_Hour":22,"Current_Minutes":28,"Current_Seconds":34},{"lon":21.249126,"lat":48.983379,"ROUTE_NUMBER":"Os 8536 ","DELAY":300,"Current_Stop":"Prešov","From":"Košice","Destination":"Lipany","Direction":21,"Current_Time":1615154824952,"Current_Day":7,"Current_Hour":23,"Current_Minutes":7,"Current_Seconds":4},{"lon":21.32044,"lat":49.04386,"ROUTE_NUMBER":"Os 9236 ","DELAY":0,"Current_Stop":"Kapušany pri Prešove","From":"Bardejov","Destination":"Prešov","Direction":16,"Current_Time":1615155515094,"Current_Day":7,"Current_Hour":23,"Current_Minutes":18,"Current_Seconds":35},{"lon":20.56151,"lat":48.95041,"ROUTE_NUMBER":"R 613 TATRAN","DELAY":660,"Current_Stop":"Spišská Nová Ves","From":"Bratislava hlavná stanica","Destination":"Košice","Direction":20,"Current_Time":1615155545147,"Current_Day":7,"Current_Hour":23,"Current_Minutes":19,"Current_Seconds":5},{"lon":20.56151,"lat":48.95041,"ROUTE_NUMBER":"R 613 TATRAN","DELAY":660,"Current_Stop":"Spišská Nová Ves","From":"Bratislava hlavná stanica","Destination":"Košice","Direction":20,"Current_Time":1615155560145,"Current_Day":7,"Current_Hour":23,"Current_Minutes":19,"Current_Seconds":20},{"lon":21.32044,"lat":49.04386,"ROUTE_NUMBER":"Os 9239 ","DELAY":300,"Current_Stop":"Kapušany pri Prešove","From":"Prešov","Destination":"Bardejov","Direction":4,"Current_Time":1615155710160,"Current_Day":7,"Current_Hour":23,"Current_Minutes":21,"Current_Seconds":50},{"lon":21.26872,"lat":48.72291,"ROUTE_NUMBER":"R 614 TATRAN ZEMPLÍN","DELAY":0,"Current_Stop":"Košice","From":"Humenné","Destination":"Bratislava hlavná stanica","Direction":54,"Current_Time":1615156085222,"Current_Day":7,"Current_Hour":23,"Current_Minutes":28,"Current_Seconds":5},{"lon":21.32044,"lat":49.04386,"ROUTE_NUMBER":"Os 9141 ","DELAY":360,"Current_Stop":"Kapušany pri Prešove","From":"Prešov","Destination":"Vranov nad Topľou","Direction":60,"Current_Time":1615156115235,"Current_Day":7,"Current_Hour":23,"Current_Minutes":28,"Current_Seconds":35},{"lon":21.32044,"lat":49.04386,"ROUTE_NUMBER":"Os 9141 ","DELAY":360,"Current_Stop":"Kapušany pri Prešove","From":"Prešov","Destination":"Vranov nad Topľou","Direction":60,"Current_Time":1615156130230,"Current_Day":7,"Current_Hour":23,"Current_Minutes":28,"Current_Seconds":50},{"lon":21.82483,"lat":48.86766,"ROUTE_NUMBER":"REX 1915 ","DELAY":0,"Current_Stop":"Strážske","From":"Košice","Destination":"Humenné","Direction":15,"Current_Time":1615159941442,"Current_Day":8,"Current_Hour":0,"Current_Minutes":32,"Current_Seconds":21},{"lon":21.82483,"lat":48.86766,"ROUTE_NUMBER":"REX 1915 ","DELAY":0,"Current_Stop":"Strážske","From":"Košice","Destination":"Humenné","Direction":15,"Current_Time":1615159971435,"Current_Day":8,"Current_Hour":0,"Current_Minutes":32,"Current_Seconds":51},{"lon":20.56151,"lat":48.95041,"ROUTE_NUMBER":"R 614 TATRAN ZEMPLÍN","DELAY":480,"Current_Stop":"Spišská Nová Ves","From":"Humenné","Destination":"Bratislava hlavná stanica","Direction":54,"Current_Time":1615160931641,"Current_Day":8,"Current_Hour":0,"Current_Minutes":48,"Current_Seconds":51},{"lon":21.249126,"lat":48.983379,"ROUTE_NUMBER":"Os 9229 ","DELAY":300,"Current_Stop":"Prešov","From":"Prešov","Destination":"Bardejov","Direction":4,"Current_Time":1615138275184,"Current_Day":7,"Current_Hour":18,"Current_Minutes":31,"Current_Seconds":15},{"lon":21.26872,"lat":48.72291,"ROUTE_NUMBER":"Os 6428 ","DELAY":300,"Current_Stop":"Košice","From":"Košice","Destination":"Moldava nad Bodvou mesto","Direction":35,"Current_Time":1615138515334,"Current_Day":7,"Current_Hour":18,"Current_Minutes":35,"Current_Seconds":15},{"lon":21.24837,"lat":48.63143,"ROUTE_NUMBER":"Os 6428 ","DELAY":540,"Current_Stop":"Haniska pri Košiciach","From":"Košice","Destination":"Moldava nad Bodvou mesto","Direction":35,"Current_Time":1615139445522,"Current_Day":7,"Current_Hour":18,"Current_Minutes":50,"Current_Seconds":45},{"lon":20.88565,"lat":48.82017,"ROUTE_NUMBER":"Os 7428 ","DELAY":0,"Current_Stop":"Prakovce","From":"Margecany","Destination":"Nálepkovo","Direction":14,"Current_Time":1615139745613,"Current_Day":7,"Current_Hour":18,"Current_Minutes":55,"Current_Seconds":45},{"lon":21.22393,"lat":48.85288,"ROUTE_NUMBER":"Os 8528 ","DELAY":300,"Current_Stop":"Kysak","From":"Košice","Destination":"Lipany","Direction":21,"Current_Time":1615139895653,"Current_Day":7,"Current_Hour":18,"Current_Minutes":58,"Current_Seconds":15},{"lon":22.172956,"lat":48.983733,"ROUTE_NUMBER":"Os 9431 ","DELAY":0,"Current_Stop":"Snina","From":"Humenné","Destination":"Stakčín","Direction":6,"Current_Time":1615141261178,"Current_Day":7,"Current_Hour":19,"Current_Minutes":21,"Current_Seconds":1},{"lon":20.56151,"lat":48.95041,"ROUTE_NUMBER":"Os 7833 ","DELAY":420,"Current_Stop":"Spišská Nová Ves","From":"Poprad-Tatry","Destination":"Košice","Direction":17,"Current_Time":1615141906296,"Current_Day":7,"Current_Hour":19,"Current_Minutes":31,"Current_Seconds":46},{"lon":21.99927,"lat":48.39944,"ROUTE_NUMBER":"Os 8834 ","DELAY":0,"Current_Stop":"Pribeník","From":"Čierna nad Tisou","Destination":"Košice","Direction":25,"Current_Time":1615144051839,"Current_Day":7,"Current_Hour":20,"Current_Minutes":7,"Current_Seconds":31},{"lon":21.01324,"lat":48.89469,"ROUTE_NUMBER":"Os 7833 ","DELAY":180,"Current_Stop":"Margecany","From":"Poprad-Tatry","Destination":"Košice","Direction":17,"Current_Time":1615144306899,"Current_Day":7,"Current_Hour":20,"Current_Minutes":11,"Current_Seconds":46},{"lon":21.90506,"lat":49.26186,"ROUTE_NUMBER":"Os 8932 ","DELAY":0,"Current_Stop":"Medzilaborce","From":"Medzilaborce mesto","Destination":"Humenné","Direction":1,"Current_Time":1615144967043,"Current_Day":7,"Current_Hour":20,"Current_Minutes":22,"Current_Seconds":47},{"lon":20.63011,"lat":48.83833,"ROUTE_NUMBER":"Os 7455 ","DELAY":0,"Current_Stop":"Nálepkovo","From":"Dobšinská Ľadová Jaskyňa","Destination":"Margecany","Direction":33,"Current_Time":1615144982038,"Current_Day":7,"Current_Hour":20,"Current_Minutes":23,"Current_Seconds":2},{"lon":21.57934,"lat":48.58169,"ROUTE_NUMBER":"Os 8834 ","DELAY":0,"Current_Stop":"Kuzmice","From":"Čierna nad Tisou","Destination":"Košice","Direction":25,"Current_Time":1615146962624,"Current_Day":7,"Current_Hour":20,"Current_Minutes":56,"Current_Seconds":2},{"lon":21.26872,"lat":48.72291,"ROUTE_NUMBER":"EN 442 Slovakia","DELAY":0,"Current_Stop":"Košice","From":"Humenné","Destination":"Žilina","Direction":50,"Current_Time":1615147307665,"Current_Day":7,"Current_Hour":21,"Current_Minutes":1,"Current_Seconds":47},{"lon":20.56151,"lat":48.95041,"ROUTE_NUMBER":"R 611 TATRAN","DELAY":600,"Current_Stop":"Spišská Nová Ves","From":"Bratislava hlavná stanica","Destination":"Košice","Direction":20,"Current_Time":1615148327898,"Current_Day":7,"Current_Hour":21,"Current_Minutes":18,"Current_Seconds":47},{"lon":21.01324,"lat":48.89469,"ROUTE_NUMBER":"R 611 TATRAN","DELAY":480,"Current_Stop":"Margecany","From":"Bratislava hlavná stanica","Destination":"Košice","Direction":20,"Current_Time":1615149783345,"Current_Day":7,"Current_Hour":21,"Current_Minutes":43,"Current_Seconds":3},{"lon":21.26872,"lat":48.72291,"ROUTE_NUMBER":"R 800 GEMERAN POĽANA","DELAY":0,"Current_Stop":"Košice","From":"Prešov","Destination":"Bratislava-Nové Mesto","Direction":53,"Current_Time":1615149948388,"Current_Day":7,"Current_Hour":21,"Current_Minutes":45,"Current_Seconds":48},{"lon":21.133704,"lat":48.87403,"ROUTE_NUMBER":"Os 7834 ","DELAY":120,"Current_Stop":"Malá Lodina","From":"Košice","Destination":"Spišská Nová Ves","Direction":55,"Current_Time":1615150623632,"Current_Day":7,"Current_Hour":21,"Current_Minutes":57,"Current_Seconds":3},{"lon":21.22393,"lat":48.85288,"ROUTE_NUMBER":"Os 8554 ","DELAY":300,"Current_Stop":"Kysak","From":"Kysak","Destination":"Prešov","Direction":56,"Current_Time":1615150728660,"Current_Day":7,"Current_Hour":21,"Current_Minutes":58,"Current_Seconds":48},{"lon":21.89858,"lat":48.75074,"ROUTE_NUMBER":"R 614 TATRAN ZEMPLÍN","DELAY":0,"Current_Stop":"Michalovce","From":"Humenné","Destination":"Bratislava hlavná stanica","Direction":54,"Current_Time":1615151884114,"Current_Day":7,"Current_Hour":22,"Current_Minutes":18,"Current_Seconds":4},{"lon":21.89858,"lat":48.75074,"ROUTE_NUMBER":"R 614 TATRAN ZEMPLÍN","DELAY":0,"Current_Stop":"Michalovce","From":"Humenné","Destination":"Bratislava hlavná stanica","Direction":54,"Current_Time":1615151914115,"Current_Day":7,"Current_Hour":22,"Current_Minutes":18,"Current_Seconds":34},{"lon":21.24601,"lat":48.7958,"ROUTE_NUMBER":"Os 8533 ","DELAY":660,"Current_Stop":"Kostoľany nad Hornádom","From":"Lipany","Destination":"Košice","Direction":18,"Current_Time":1615152289267,"Current_Day":7,"Current_Hour":22,"Current_Minutes":24,"Current_Seconds":49},{"lon":21.00288,"lat":48.60123,"ROUTE_NUMBER":"R 800 GEMERAN POĽANA","DELAY":-120,"Current_Stop":"Moldava nad Bodvou","From":"Prešov","Destination":"Bratislava-Nové Mesto","Direction":53,"Current_Time":1615152679410,"Current_Day":7,"Current_Hour":22,"Current_Minutes":31,"Current_Seconds":19},{"lon":21.24601,"lat":48.7958,"ROUTE_NUMBER":"Os 8536 ","DELAY":360,"Current_Stop":"Kostoľany nad Hornádom","From":"Košice","Destination":"Lipany","Direction":21,"Current_Time":1615152754421,"Current_Day":7,"Current_Hour":22,"Current_Minutes":32,"Current_Seconds":34},{"lon":21.22393,"lat":48.85288,"ROUTE_NUMBER":"Os 8536 ","DELAY":420,"Current_Stop":"Kysak","From":"Košice","Destination":"Lipany","Direction":21,"Current_Time":1615153354580,"Current_Day":7,"Current_Hour":22,"Current_Minutes":42,"Current_Seconds":34},{"lon":21.90119,"lat":48.93015,"ROUTE_NUMBER":"Os 8939 ","DELAY":300,"Current_Stop":"Humenné","From":"Humenné","Destination":"Medzilaborce","Direction":52,"Current_Time":1615153834691,"Current_Day":7,"Current_Hour":22,"Current_Minutes":50,"Current_Seconds":34},{"lon":21.90119,"lat":48.93015,"ROUTE_NUMBER":"Os 8939 ","DELAY":300,"Current_Stop":"Humenné","From":"Humenné","Destination":"Medzilaborce","Direction":52,"Current_Time":1615153849695,"Current_Day":7,"Current_Hour":22,"Current_Minutes":50,"Current_Seconds":49},{"lon":20.52637,"lat":49.25529,"ROUTE_NUMBER":"Os 8336 ","DELAY":240,"Current_Stop":"Podolínec","From":"Stará Ľubovňa","Destination":"Poprad-Tatry","Direction":22,"Current_Time":1615153924698,"Current_Day":7,"Current_Hour":22,"Current_Minutes":52,"Current_Seconds":4},{"lon":21.241086,"lat":48.873332,"ROUTE_NUMBER":"Os 8527 ","DELAY":240,"Current_Stop":"Ličartovce","From":"Lipany","Destination":"Košice","Direction":18,"Current_Time":1615136549381,"Current_Day":7,"Current_Hour":18,"Current_Minutes":2,"Current_Seconds":29},{"lon":21.241086,"lat":48.873332,"ROUTE_NUMBER":"Os 8527 ","DELAY":240,"Current_Stop":"Ličartovce","From":"Lipany","Destination":"Košice","Direction":18,"Current_Time":1615136564413,"Current_Day":7,"Current_Hour":18,"Current_Minutes":2,"Current_Seconds":44},{"lon":21.75188,"lat":48.85705,"ROUTE_NUMBER":"Os 9127 ","DELAY":0,"Current_Stop":"Nižný Hrabovec","From":"Prešov","Destination":"Humenné","Direction":12,"Current_Time":1615136339151,"Current_Day":7,"Current_Hour":17,"Current_Minutes":58,"Current_Seconds":59},{"lon":21.75188,"lat":48.85705,"ROUTE_NUMBER":"Os 9128 ","DELAY":0,"Current_Stop":"Nižný Hrabovec","From":"Humenné","Destination":"Prešov","Direction":3,"Current_Time":1615136429242,"Current_Day":7,"Current_Hour":18,"Current_Minutes":0,"Current_Seconds":29},{"lon":21.75188,"lat":48.85705,"ROUTE_NUMBER":"Os 9128 ","DELAY":0,"Current_Stop":"Nižný Hrabovec","From":"Humenné","Destination":"Prešov","Direction":3,"Current_Time":1615136459260,"Current_Day":7,"Current_Hour":18,"Current_Minutes":0,"Current_Seconds":59},{"lon":21.75188,"lat":48.85705,"ROUTE_NUMBER":"Os 9128 ","DELAY":0,"Current_Stop":"Nižný Hrabovec","From":"Humenné","Destination":"Prešov","Direction":3,"Current_Time":1615136444272,"Current_Day":7,"Current_Hour":18,"Current_Minutes":0,"Current_Seconds":44},{"lon":20.88621,"lat":48.92171,"ROUTE_NUMBER":"Os 7829 ","DELAY":0,"Current_Stop":"Krompachy","From":"Poprad-Tatry","Destination":"Košice","Direction":17,"Current_Time":1615136339151,"Current_Day":7,"Current_Hour":17,"Current_Minutes":58,"Current_Seconds":59},{"lon":21.22393,"lat":48.85288,"ROUTE_NUMBER":"Os 8526 ","DELAY":360,"Current_Stop":"Kysak","From":"Košice","Destination":"Lipany","Direction":21,"Current_Time":1615136399187,"Current_Day":7,"Current_Hour":17,"Current_Minutes":59,"Current_Seconds":59},{"lon":21.249126,"lat":48.983379,"ROUTE_NUMBER":"Os 8527 ","DELAY":0,"Current_Stop":"Prešov","From":"Lipany","Destination":"Košice","Direction":18,"Current_Time":1615135355831,"Current_Day":7,"Current_Hour":17,"Current_Minutes":42,"Current_Seconds":35},{"lon":20.914439,"lat":49.213821,"ROUTE_NUMBER":"Os 8529 ","DELAY":0,"Current_Stop":"Pusté Pole","From":"Čirč","Destination":"Košice","Direction":68,"Current_Time":1615135678949,"Current_Day":7,"Current_Hour":17,"Current_Minutes":47,"Current_Seconds":58},{"lon":21.22393,"lat":48.85288,"ROUTE_NUMBER":"R 607 TATRAN","DELAY":180,"Current_Stop":"Kysak","From":"Bratislava hlavná stanica","Destination":"Košice","Direction":20,"Current_Time":1615136099116,"Current_Day":7,"Current_Hour":17,"Current_Minutes":54,"Current_Seconds":59},{"lon":21.77576,"lat":48.65229,"ROUTE_NUMBER":"REX 1909 ","DELAY":0,"Current_Stop":"Hrinište","From":"Košice","Destination":"Humenné","Direction":15,"Current_Time":1615136249127,"Current_Day":7,"Current_Hour":17,"Current_Minutes":57,"Current_Seconds":29},{"lon":21.249126,"lat":48.983379,"ROUTE_NUMBER":"Os 8527 ","DELAY":0,"Current_Stop":"Prešov","From":"Lipany","Destination":"Košice","Direction":18,"Current_Time":1615135340820,"Current_Day":7,"Current_Hour":17,"Current_Minutes":42,"Current_Seconds":20},{"lon":21.249126,"lat":48.983379,"ROUTE_NUMBER":"Os 8527 ","DELAY":0,"Current_Stop":"Prešov","From":"Lipany","Destination":"Košice","Direction":18,"Current_Time":1615135325833,"Current_Day":7,"Current_Hour":17,"Current_Minutes":42,"Current_Seconds":5},{"lon":21.75188,"lat":48.85705,"ROUTE_NUMBER":"Os 9127 ","DELAY":0,"Current_Stop":"Nižný Hrabovec","From":"Prešov","Destination":"Humenné","Direction":12,"Current_Time":1615136309141,"Current_Day":7,"Current_Hour":17,"Current_Minutes":58,"Current_Seconds":29},{"lon":21.22393,"lat":48.85288,"ROUTE_NUMBER":"Os 7826 ","DELAY":600,"Current_Stop":"Kysak","From":"Košice","Destination":"Poprad-Tatry","Direction":9,"Current_Time":1615135498903,"Current_Day":7,"Current_Hour":17,"Current_Minutes":44,"Current_Seconds":58},{"lon":21.629827,"lat":48.61264,"ROUTE_NUMBER":"REX 1909 ","DELAY":60,"Current_Stop":"Čeľovce","From":"Košice","Destination":"Humenné","Direction":15,"Current_Time":1615135558982,"Current_Day":7,"Current_Hour":17,"Current_Minutes":45,"Current_Seconds":58},{"lon":21.89858,"lat":48.75074,"ROUTE_NUMBER":"REX 1914 ","DELAY":0,"Current_Stop":"Michalovce","From":"Humenné","Destination":"Košice","Direction":10,"Current_Time":1615136010067,"Current_Day":7,"Current_Hour":17,"Current_Minutes":53,"Current_Seconds":30},{"lon":21.77576,"lat":48.65229,"ROUTE_NUMBER":"REX 1909 ","DELAY":0,"Current_Stop":"Hrinište","From":"Košice","Destination":"Humenné","Direction":15,"Current_Time":1615136264129,"Current_Day":7,"Current_Hour":17,"Current_Minutes":57,"Current_Seconds":44},{"lon":21.89858,"lat":48.75074,"ROUTE_NUMBER":"REX 1914 ","DELAY":0,"Current_Stop":"Michalovce","From":"Humenné","Destination":"Košice","Direction":10,"Current_Time":1615136039111,"Current_Day":7,"Current_Hour":17,"Current_Minutes":53,"Current_Seconds":59},{"lon":21.133704,"lat":48.87403,"ROUTE_NUMBER":"Os 7826 ","DELAY":540,"Current_Stop":"Malá Lodina","From":"Košice","Destination":"Poprad-Tatry","Direction":9,"Current_Time":1615136099116,"Current_Day":7,"Current_Hour":17,"Current_Minutes":54,"Current_Seconds":59},{"lon":20.56151,"lat":48.95041,"ROUTE_NUMBER":"R 615 TATRAN ZEMPLÍN","DELAY":840,"Current_Stop":"Spišská Nová Ves","From":"Bratislava hlavná stanica","Destination":"Humenné","Direction":30,"Current_Time":1615172635084,"Current_Day":8,"Current_Hour":4,"Current_Minutes":3,"Current_Seconds":55},{"lon":21.40544,"lat":49.04906,"ROUTE_NUMBER":"Os 9140 ","DELAY":0,"Current_Stop":"Lipníky","From":"Vranov nad Topľou","Destination":"Prešov","Direction":31,"Current_Time":1615173415296,"Current_Day":8,"Current_Hour":4,"Current_Minutes":16,"Current_Seconds":55},{"lon":20.63011,"lat":48.83833,"ROUTE_NUMBER":"Os 7451 ","DELAY":0,"Current_Stop":"Nálepkovo","From":"Dobšinská Ľadová Jaskyňa","Destination":"Margecany","Direction":33,"Current_Time":1615174645708,"Current_Day":8,"Current_Hour":4,"Current_Minutes":37,"Current_Seconds":25},{"lon":21.40544,"lat":49.04906,"ROUTE_NUMBER":"Os 9101 ","DELAY":0,"Current_Stop":"Lipníky","From":"Prešov","Destination":"Humenné","Direction":12,"Current_Time":1615174735780,"Current_Day":8,"Current_Hour":4,"Current_Minutes":38,"Current_Seconds":55},{"lon":22.05519,"lat":48.95489,"ROUTE_NUMBER":"Os 9400 ","DELAY":0,"Current_Stop":"Dlhé nad Cirochou","From":"Stakčín","Destination":"Humenné","Direction":5,"Current_Time":1615175020792,"Current_Day":8,"Current_Hour":4,"Current_Minutes":43,"Current_Seconds":40},{"lon":22.05519,"lat":48.95489,"ROUTE_NUMBER":"Os 9401 ","DELAY":0,"Current_Stop":"Dlhé nad Cirochou","From":"Humenné","Destination":"Stakčín","Direction":6,"Current_Time":1615175200853,"Current_Day":8,"Current_Hour":4,"Current_Minutes":46,"Current_Seconds":40},{"lon":20.471821,"lat":49.184593,"ROUTE_NUMBER":"Os 8301 ","DELAY":0,"Current_Stop":"Spišská Belá zastávka","From":"Poprad-Tatry","Destination":"Stará Ľubovňa","Direction":2,"Current_Time":1615175560979,"Current_Day":8,"Current_Hour":4,"Current_Minutes":52,"Current_Seconds":40},{"lon":21.31413,"lat":49.14945,"ROUTE_NUMBER":"Os 9201 ","DELAY":0,"Current_Stop":"Raslavice","From":"Kapušany pri Prešove","Destination":"Bardejov","Direction":34,"Current_Time":1615175996176,"Current_Day":8,"Current_Hour":4,"Current_Minutes":59,"Current_Seconds":56},{"lon":21.95465,"lat":49.05145,"ROUTE_NUMBER":"Os 8903 ","DELAY":0,"Current_Stop":"Koškovce","From":"Humenné","Destination":"Medzilaborce mesto","Direction":13,"Current_Time":1615176026176,"Current_Day":8,"Current_Hour":5,"Current_Minutes":0,"Current_Seconds":26},{"lon":20.81501,"lat":48.81167,"ROUTE_NUMBER":"Os 7451 ","DELAY":0,"Current_Stop":"Mníšek nad Hnilcom","From":"Dobšinská Ľadová Jaskyňa","Destination":"Margecany","Direction":33,"Current_Time":1615176056195,"Current_Day":8,"Current_Hour":5,"Current_Minutes":0,"Current_Seconds":56},{"lon":21.75188,"lat":48.85705,"ROUTE_NUMBER":"Os 9102 ","DELAY":0,"Current_Stop":"Nižný Hrabovec","From":"Humenné","Destination":"Prešov","Direction":3,"Current_Time":1615176176173,"Current_Day":8,"Current_Hour":5,"Current_Minutes":2,"Current_Seconds":56},{"lon":21.26872,"lat":48.72291,"ROUTE_NUMBER":"R 615 TATRAN ZEMPLÍN","DELAY":1260,"Current_Stop":"Košice","From":"Bratislava hlavná stanica","Destination":"Humenné","Direction":30,"Current_Time":1615176476287,"Current_Day":8,"Current_Hour":5,"Current_Minutes":7,"Current_Seconds":56},{"lon":21.32044,"lat":49.04386,"ROUTE_NUMBER":"Os 9100 ","DELAY":0,"Current_Stop":"Kapušany pri Prešove","From":"Humenné","Destination":"Prešov","Direction":3,"Current_Time":1615177181528,"Current_Day":8,"Current_Hour":5,"Current_Minutes":19,"Current_Seconds":41},{"lon":21.26712,"lat":49.01659,"ROUTE_NUMBER":"Os 9202 ","DELAY":0,"Current_Stop":"Šarišské Lúky","From":"Bardejov","Destination":"Prešov","Direction":16,"Current_Time":1615178006674,"Current_Day":8,"Current_Hour":5,"Current_Minutes":33,"Current_Seconds":26},{"lon":21.26712,"lat":49.01659,"ROUTE_NUMBER":"Os 9202 ","DELAY":0,"Current_Stop":"Šarišské Lúky","From":"Bardejov","Destination":"Prešov","Direction":16,"Current_Time":1615178021695,"Current_Day":8,"Current_Hour":5,"Current_Minutes":33,"Current_Seconds":41},{"lon":21.77576,"lat":48.65229,"ROUTE_NUMBER":"Os 9003 ","DELAY":0,"Current_Stop":"Hrinište","From":"Michaľany","Destination":"Humenné","Direction":38,"Current_Time":1615178096675,"Current_Day":8,"Current_Hour":5,"Current_Minutes":34,"Current_Seconds":56},{"lon":21.82483,"lat":48.86766,"ROUTE_NUMBER":"Os 9101 ","DELAY":0,"Current_Stop":"Strážske","From":"Prešov","Destination":"Humenné","Direction":12,"Current_Time":1615178276719,"Current_Day":8,"Current_Hour":5,"Current_Minutes":37,"Current_Seconds":56},{"lon":21.6262,"lat":48.52172,"ROUTE_NUMBER":"Os 8804 ","DELAY":120,"Current_Stop":"Michaľany","From":"Čierna nad Tisou","Destination":"Košice","Direction":25,"Current_Time":1615179597052,"Current_Day":8,"Current_Hour":5,"Current_Minutes":59,"Current_Seconds":57},{"lon":20.81501,"lat":48.81167,"ROUTE_NUMBER":"Os 7402 ","DELAY":0,"Current_Stop":"Mníšek nad Hnilcom","From":"Margecany","Destination":"Nálepkovo","Direction":14,"Current_Time":1615179657077,"Current_Day":8,"Current_Hour":6,"Current_Minutes":0,"Current_Seconds":57},{"lon":21.6262,"lat":48.52172,"ROUTE_NUMBER":"Os 8803 ","DELAY":60,"Current_Stop":"Michaľany","From":"Košice","Destination":"Čierna nad Tisou","Direction":8,"Current_Time":1615180002137,"Current_Day":8,"Current_Hour":6,"Current_Minutes":6,"Current_Seconds":42},{"lon":21.0886,"lat":49.10324,"ROUTE_NUMBER":"Os 8505 ","DELAY":600,"Current_Stop":"Sabinov","From":"Lipany","Destination":"Košice","Direction":18,"Current_Time":1615180977428,"Current_Day":8,"Current_Hour":6,"Current_Minutes":22,"Current_Seconds":57},{"lon":21.90506,"lat":49.26186,"ROUTE_NUMBER":"Os 8904 ","DELAY":0,"Current_Stop":"Medzilaborce","From":"Medzilaborce mesto","Destination":"Humenné","Direction":1,"Current_Time":1615180977428,"Current_Day":8,"Current_Hour":6,"Current_Minutes":22,"Current_Seconds":57},{"lon":21.67169,"lat":48.57716,"ROUTE_NUMBER":"Os 9004 ","DELAY":60,"Current_Stop":"Úpor","From":"Trebišov","Destination":"Michaľany","Direction":42,"Current_Time":1615181247509,"Current_Day":8,"Current_Hour":6,"Current_Minutes":27,"Current_Seconds":27},{"lon":21.67169,"lat":48.57716,"ROUTE_NUMBER":"Os 9004 ","DELAY":60,"Current_Stop":"Úpor","From":"Trebišov","Destination":"Michaľany","Direction":42,"Current_Time":1615181262525,"Current_Day":8,"Current_Hour":6,"Current_Minutes":27,"Current_Seconds":42},{"lon":21.83458,"lat":48.67913,"ROUTE_NUMBER":"R 615 TATRAN ZEMPLÍN","DELAY":1860,"Current_Stop":"Bánovce nad Ondavou","From":"Bratislava hlavná stanica","Destination":"Humenné","Direction":30,"Current_Time":1615181577631,"Current_Day":8,"Current_Hour":6,"Current_Minutes":32,"Current_Seconds":57},{"lon":21.82483,"lat":48.86766,"ROUTE_NUMBER":"R 615 TATRAN ZEMPLÍN","DELAY":1560,"Current_Stop":"Strážske","From":"Bratislava hlavná stanica","Destination":"Humenné","Direction":30,"Current_Time":1615182597946,"Current_Day":8,"Current_Hour":6,"Current_Minutes":49,"Current_Seconds":57},{"lon":21.17186,"lat":48.59126,"ROUTE_NUMBER":"Os 6407 ","DELAY":0,"Current_Stop":"Veľká Ida","From":"Moldava nad Bodvou mesto","Destination":"Košice","Direction":26,"Current_Time":1615182718022,"Current_Day":8,"Current_Hour":6,"Current_Minutes":51,"Current_Seconds":58},{"lon":21.6262,"lat":48.52172,"ROUTE_NUMBER":"REX 1964 ","DELAY":120,"Current_Stop":"Michaľany","From":"Čierna nad Tisou","Destination":"Košice","Direction":25,"Current_Time":1615182808037,"Current_Day":8,"Current_Hour":6,"Current_Minutes":53,"Current_Seconds":28},{"lon":20.94725,"lat":48.85834,"ROUTE_NUMBER":"Os 7405 ","DELAY":0,"Current_Stop":"Gelnica","From":"Nálepkovo","Destination":"Margecany","Direction":7,"Current_Time":1615182943062,"Current_Day":8,"Current_Hour":6,"Current_Minutes":55,"Current_Seconds":43},{"lon":20.94725,"lat":48.85834,"ROUTE_NUMBER":"REX 820 ","DELAY":0,"Current_Stop":"Gelnica","From":"Margecany","Destination":"Banská Bystrica","Direction":72,"Current_Time":1615183168232,"Current_Day":8,"Current_Hour":6,"Current_Minutes":59,"Current_Seconds":28},{"lon":21.40544,"lat":49.04906,"ROUTE_NUMBER":"Os 9104 ","DELAY":0,"Current_Stop":"Lipníky","From":"Humenné","Destination":"Prešov","Direction":3,"Current_Time":1615183423347,"Current_Day":8,"Current_Hour":7,"Current_Minutes":3,"Current_Seconds":43},{"lon":21.241086,"lat":48.873332,"ROUTE_NUMBER":"Os 8505 ","DELAY":300,"Current_Stop":"Ličartovce","From":"Lipany","Destination":"Košice","Direction":18,"Current_Time":1615183618371,"Current_Day":8,"Current_Hour":7,"Current_Minutes":6,"Current_Seconds":58},{"lon":21.22393,"lat":48.85288,"ROUTE_NUMBER":"Os 8505 ","DELAY":420,"Current_Stop":"Kysak","From":"Lipany","Destination":"Košice","Direction":18,"Current_Time":1615184098445,"Current_Day":8,"Current_Hour":7,"Current_Minutes":14,"Current_Seconds":58},{"lon":21.249126,"lat":48.983379,"ROUTE_NUMBER":"Os 8507 ","DELAY":120,"Current_Stop":"Prešov","From":"Lipany","Destination":"Košice","Direction":18,"Current_Time":1615184998807,"Current_Day":8,"Current_Hour":7,"Current_Minutes":29,"Current_Seconds":58},{"lon":21.22393,"lat":48.85288,"ROUTE_NUMBER":"RR 765 TATRAN","DELAY":120,"Current_Stop":"Kysak","From":"Poprad-Tatry","Destination":"Košice","Direction":17,"Current_Time":1615185148868,"Current_Day":8,"Current_Hour":7,"Current_Minutes":32,"Current_Seconds":28},{"lon":21.75771,"lat":48.39034,"ROUTE_NUMBER":"Os 8808 ","DELAY":60,"Current_Stop":"Streda nad Bodrogom","From":"Čierna nad Tisou","Destination":"Košice","Direction":25,"Current_Time":1615185644002,"Current_Day":8,"Current_Hour":7,"Current_Minutes":40,"Current_Seconds":44},{"lon":21.20295,"lat":49.04477,"ROUTE_NUMBER":"Os 8504 ","DELAY":0,"Current_Stop":"Veľký Šariš","From":"Košice","Destination":"Lipany","Direction":21,"Current_Time":1615185719158,"Current_Day":8,"Current_Hour":7,"Current_Minutes":41,"Current_Seconds":59},{"lon":21.0886,"lat":49.10324,"ROUTE_NUMBER":"Os 8504 ","DELAY":0,"Current_Stop":"Sabinov","From":"Košice","Destination":"Lipany","Direction":21,"Current_Time":1615186469318,"Current_Day":8,"Current_Hour":7,"Current_Minutes":54,"Current_Seconds":29},{"lon":21.133704,"lat":48.87403,"ROUTE_NUMBER":"Os 7809 ","DELAY":60,"Current_Stop":"Malá Lodina","From":"Liptovský Mikuláš","Destination":"Košice","Direction":46,"Current_Time":1615187219528,"Current_Day":8,"Current_Hour":8,"Current_Minutes":6,"Current_Seconds":59},{"lon":20.56151,"lat":48.95041,"ROUTE_NUMBER":"Os 7806 ","DELAY":0,"Current_Stop":"Spišská Nová Ves","From":"Košice","Destination":"Poprad-Tatry","Direction":9,"Current_Time":1615189110083,"Current_Day":8,"Current_Hour":8,"Current_Minutes":38,"Current_Seconds":30},{"lon":21.29588,"lat":48.67004,"ROUTE_NUMBER":"Os 8808 ","DELAY":0,"Current_Stop":"Krásna nad Hornádom","From":"Čierna nad Tisou","Destination":"Košice","Direction":25,"Current_Time":1615189380124,"Current_Day":8,"Current_Hour":8,"Current_Minutes":43,"Current_Seconds":0},{"lon":21.6674,"lat":48.40282,"ROUTE_NUMBER":"Os 8810 ","DELAY":240,"Current_Stop":"Slovenské Nové Mesto","From":"Čierna nad Tisou","Destination":"Košice","Direction":25,"Current_Time":1615189830317,"Current_Day":8,"Current_Hour":8,"Current_Minutes":50,"Current_Seconds":30},{"lon":20.72323,"lat":48.8055,"ROUTE_NUMBER":"Os 7411 ","DELAY":0,"Current_Stop":"Švedlár","From":"Nálepkovo","Destination":"Margecany","Direction":7,"Current_Time":1615190341357,"Current_Day":8,"Current_Hour":8,"Current_Minutes":59,"Current_Seconds":1},{"lon":22.05519,"lat":48.95489,"ROUTE_NUMBER":"Os 9410 ","DELAY":0,"Current_Stop":"Dlhé nad Cirochou","From":"Stakčín","Destination":"Humenné","Direction":5,"Current_Time":1615190505359,"Current_Day":8,"Current_Hour":9,"Current_Minutes":1,"Current_Seconds":45},{"lon":21.95465,"lat":49.05145,"ROUTE_NUMBER":"Os 8911 ","DELAY":0,"Current_Stop":"Koškovce","From":"Humenné","Destination":"Medzilaborce mesto","Direction":13,"Current_Time":1615190535391,"Current_Day":8,"Current_Hour":9,"Current_Minutes":2,"Current_Seconds":15},{"lon":21.31413,"lat":49.14945,"ROUTE_NUMBER":"Os 9208 ","DELAY":180,"Current_Stop":"Raslavice","From":"Bardejov","Destination":"Prešov","Direction":16,"Current_Time":1615190580398,"Current_Day":8,"Current_Hour":9,"Current_Minutes":3,"Current_Seconds":0},{"lon":21.31413,"lat":49.14945,"ROUTE_NUMBER":"Os 9208 ","DELAY":180,"Current_Stop":"Raslavice","From":"Bardejov","Destination":"Prešov","Direction":16,"Current_Time":1615190610425,"Current_Day":8,"Current_Hour":9,"Current_Minutes":3,"Current_Seconds":30},{"lon":20.72323,"lat":48.8055,"ROUTE_NUMBER":"Os 7408 ","DELAY":0,"Current_Stop":"Švedlár","From":"Margecany","Destination":"Nálepkovo","Direction":14,"Current_Time":1615190925578,"Current_Day":8,"Current_Hour":9,"Current_Minutes":8,"Current_Seconds":45},{"lon":21.90506,"lat":49.26186,"ROUTE_NUMBER":"Os 8911 ","DELAY":0,"Current_Stop":"Medzilaborce","From":"Humenné","Destination":"Medzilaborce mesto","Direction":13,"Current_Time":1615193416197,"Current_Day":8,"Current_Hour":9,"Current_Minutes":50,"Current_Seconds":16},{"lon":21.90506,"lat":49.26186,"ROUTE_NUMBER":"Os 8911 ","DELAY":0,"Current_Stop":"Medzilaborce","From":"Humenné","Destination":"Medzilaborce mesto","Direction":13,"Current_Time":1615193431224,"Current_Day":8,"Current_Hour":9,"Current_Minutes":50,"Current_Seconds":31},{"lon":21.75188,"lat":48.85705,"ROUTE_NUMBER":"Os 9111 ","DELAY":0,"Current_Stop":"Nižný Hrabovec","From":"Prešov","Destination":"Humenné","Direction":12,"Current_Time":1615193926335,"Current_Day":8,"Current_Hour":9,"Current_Minutes":58,"Current_Seconds":46},{"lon":21.01324,"lat":48.89469,"ROUTE_NUMBER":"Os 7810 ","DELAY":480,"Current_Stop":"Margecany","From":"Košice","Destination":"Poprad-Tatry","Direction":9,"Current_Time":1615194346423,"Current_Day":8,"Current_Hour":10,"Current_Minutes":5,"Current_Seconds":46},{"lon":21.83458,"lat":48.67913,"ROUTE_NUMBER":"REX 1906 ","DELAY":300,"Current_Stop":"Bánovce nad Ondavou","From":"Humenné","Destination":"Košice","Direction":10,"Current_Time":1615194406437,"Current_Day":8,"Current_Hour":10,"Current_Minutes":6,"Current_Seconds":46},{"lon":21.82483,"lat":48.86766,"ROUTE_NUMBER":"Os 9111 ","DELAY":0,"Current_Stop":"Strážske","From":"Prešov","Destination":"Humenné","Direction":12,"Current_Time":1615194676517,"Current_Day":8,"Current_Hour":10,"Current_Minutes":11,"Current_Seconds":16},{"lon":21.89858,"lat":48.75074,"ROUTE_NUMBER":"EN 443 Slovakia","DELAY":-60,"Current_Stop":"Michalovce","From":"Žilina","Destination":"Humenné","Direction":45,"Current_Time":1615194691506,"Current_Day":8,"Current_Hour":10,"Current_Minutes":11,"Current_Seconds":31},{"lon":21.22393,"lat":48.85288,"ROUTE_NUMBER":"Os 8511 ","DELAY":60,"Current_Stop":"Kysak","From":"Lipany","Destination":"Košice","Direction":18,"Current_Time":1615194706511,"Current_Day":8,"Current_Hour":10,"Current_Minutes":11,"Current_Seconds":46},{"lon":21.71184,"lat":48.63306,"ROUTE_NUMBER":"REX 1906 ","DELAY":0,"Current_Stop":"Trebišov","From":"Humenné","Destination":"Košice","Direction":10,"Current_Time":1615194811522,"Current_Day":8,"Current_Hour":10,"Current_Minutes":13,"Current_Seconds":31},{"lon":20.80377,"lat":48.93557,"ROUTE_NUMBER":"Os 7810 ","DELAY":480,"Current_Stop":"Spišské Vlachy","From":"Košice","Destination":"Poprad-Tatry","Direction":9,"Current_Time":1615195366729,"Current_Day":8,"Current_Hour":10,"Current_Minutes":22,"Current_Seconds":46},{"lon":21.249126,"lat":48.983379,"ROUTE_NUMBER":"Os 8510 ","DELAY":960,"Current_Stop":"Prešov","From":"Košice","Destination":"Lipany","Direction":21,"Current_Time":1615195966897,"Current_Day":8,"Current_Hour":10,"Current_Minutes":32,"Current_Seconds":46},{"lon":21.22393,"lat":48.85288,"ROUTE_NUMBER":"Os 7813 ","DELAY":1140,"Current_Stop":"Kysak","From":"Poprad-Tatry","Destination":"Košice","Direction":17,"Current_Time":1615196612047,"Current_Day":8,"Current_Hour":10,"Current_Minutes":43,"Current_Seconds":32},{"lon":21.32044,"lat":49.04386,"ROUTE_NUMBER":"Os 9112 ","DELAY":0,"Current_Stop":"Kapušany pri Prešove","From":"Humenné","Destination":"Prešov","Direction":3,"Current_Time":1615197497413,"Current_Day":8,"Current_Hour":10,"Current_Minutes":58,"Current_Seconds":17},{"lon":21.241086,"lat":48.873332,"ROUTE_NUMBER":"Os 8513 ","DELAY":0,"Current_Stop":"Ličartovce","From":"Prešov","Destination":"Košice","Direction":40,"Current_Time":1615197827433,"Current_Day":8,"Current_Hour":11,"Current_Minutes":3,"Current_Seconds":47},{"lon":21.6262,"lat":48.52172,"ROUTE_NUMBER":"Os 8814 ","DELAY":420,"Current_Stop":"Michaľany","From":"Čierna nad Tisou","Destination":"Košice","Direction":25,"Current_Time":1615197887458,"Current_Day":8,"Current_Hour":11,"Current_Minutes":4,"Current_Seconds":47},{"lon":21.24601,"lat":48.7958,"ROUTE_NUMBER":"Os 8513 ","DELAY":120,"Current_Stop":"Kostoľany nad Hornádom","From":"Prešov","Destination":"Košice","Direction":40,"Current_Time":1615198757739,"Current_Day":8,"Current_Hour":11,"Current_Minutes":19,"Current_Seconds":17},{"lon":21.0886,"lat":49.10324,"ROUTE_NUMBER":"Os 8515 ","DELAY":60,"Current_Stop":"Sabinov","From":"Lipany","Destination":"Košice","Direction":18,"Current_Time":1615198757739,"Current_Day":8,"Current_Hour":11,"Current_Minutes":19,"Current_Seconds":17},{"lon":21.249126,"lat":48.983379,"ROUTE_NUMBER":"Os 8515 ","DELAY":0,"Current_Stop":"Prešov","From":"Lipany","Destination":"Košice","Direction":18,"Current_Time":1615200138177,"Current_Day":8,"Current_Hour":11,"Current_Minutes":42,"Current_Seconds":18},{"lon":21.01324,"lat":48.89469,"ROUTE_NUMBER":"Os 7817 ","DELAY":0,"Current_Stop":"Margecany","From":"Poprad-Tatry","Destination":"Košice","Direction":17,"Current_Time":1615201788827,"Current_Day":8,"Current_Hour":12,"Current_Minutes":9,"Current_Seconds":48},{"lon":21.83458,"lat":48.67913,"ROUTE_NUMBER":"REX 1901 ","DELAY":540,"Current_Stop":"Bánovce nad Ondavou","From":"Košice","Destination":"Humenné","Direction":15,"Current_Time":1615201848893,"Current_Day":8,"Current_Hour":12,"Current_Minutes":10,"Current_Seconds":48},{"lon":21.24601,"lat":48.7958,"ROUTE_NUMBER":"Os 8514 ","DELAY":1440,"Current_Stop":"Kostoľany nad Hornádom","From":"Košice","Destination":"Lipany","Direction":21,"Current_Time":1615201863813,"Current_Day":8,"Current_Hour":12,"Current_Minutes":11,"Current_Seconds":3},{"lon":21.22393,"lat":48.85288,"ROUTE_NUMBER":"Os 8514 ","DELAY":1080,"Current_Stop":"Kysak","From":"Košice","Destination":"Lipany","Direction":21,"Current_Time":1615201878874,"Current_Day":8,"Current_Hour":12,"Current_Minutes":11,"Current_Seconds":18},{"lon":21.82483,"lat":48.86766,"ROUTE_NUMBER":"Os 9115 ","DELAY":0,"Current_Stop":"Strážske","From":"Prešov","Destination":"Humenné","Direction":12,"Current_Time":1615201878874,"Current_Day":8,"Current_Hour":12,"Current_Minutes":11,"Current_Seconds":18},{"lon":21.22393,"lat":48.85288,"ROUTE_NUMBER":"Os 8514 ","DELAY":1080,"Current_Stop":"Kysak","From":"Košice","Destination":"Lipany","Direction":21,"Current_Time":1615201893811,"Current_Day":8,"Current_Hour":12,"Current_Minutes":11,"Current_Seconds":33},{"lon":21.249126,"lat":48.983379,"ROUTE_NUMBER":"Os 9217 ","DELAY":300,"Current_Stop":"Prešov","From":"Prešov","Destination":"Bardejov","Direction":4,"Current_Time":1615203049526,"Current_Day":8,"Current_Hour":12,"Current_Minutes":30,"Current_Seconds":49},{"lon":21.20295,"lat":49.04477,"ROUTE_NUMBER":"Os 8514 ","DELAY":660,"Current_Stop":"Veľký Šariš","From":"Košice","Destination":"Lipany","Direction":21,"Current_Time":1615203769778,"Current_Day":8,"Current_Hour":12,"Current_Minutes":42,"Current_Seconds":49},{"lon":22.172956,"lat":48.983733,"ROUTE_NUMBER":"Os 9418 ","DELAY":0,"Current_Stop":"Snina","From":"Stakčín","Destination":"Humenné","Direction":5,"Current_Time":1615203949843,"Current_Day":8,"Current_Hour":12,"Current_Minutes":45,"Current_Seconds":49},{"lon":20.81501,"lat":48.81167,"ROUTE_NUMBER":"Os 7419 ","DELAY":0,"Current_Stop":"Mníšek nad Hnilcom","From":"Nálepkovo","Destination":"Margecany","Direction":7,"Current_Time":1615204671063,"Current_Day":8,"Current_Hour":12,"Current_Minutes":57,"Current_Seconds":51},{"lon":21.95465,"lat":49.05145,"ROUTE_NUMBER":"Os 8919 ","DELAY":0,"Current_Stop":"Koškovce","From":"Humenné","Destination":"Medzilaborce mesto","Direction":13,"Current_Time":1615204849998,"Current_Day":8,"Current_Hour":13,"Current_Minutes":0,"Current_Seconds":49},{"lon":20.56151,"lat":48.95041,"ROUTE_NUMBER":"R 608 TATRAN","DELAY":600,"Current_Stop":"Spišská Nová Ves","From":"Košice","Destination":"Bratislava hlavná stanica","Direction":23,"Current_Time":1615205090095,"Current_Day":8,"Current_Hour":13,"Current_Minutes":4,"Current_Seconds":50},{"lon":21.95465,"lat":49.05145,"ROUTE_NUMBER":"Os 8916 ","DELAY":0,"Current_Stop":"Koškovce","From":"Medzilaborce mesto","Destination":"Humenné","Direction":1,"Current_Time":1615205090095,"Current_Day":8,"Current_Hour":13,"Current_Minutes":4,"Current_Seconds":50},{"lon":21.31413,"lat":49.14945,"ROUTE_NUMBER":"Os 9217 ","DELAY":420,"Current_Stop":"Raslavice","From":"Prešov","Destination":"Bardejov","Direction":4,"Current_Time":1615205210114,"Current_Day":8,"Current_Hour":13,"Current_Minutes":6,"Current_Seconds":50},{"lon":20.94725,"lat":48.85834,"ROUTE_NUMBER":"Os 7418 ","DELAY":60,"Current_Stop":"Gelnica","From":"Margecany","Destination":"Nálepkovo","Direction":14,"Current_Time":1615206155370,"Current_Day":8,"Current_Hour":13,"Current_Minutes":22,"Current_Seconds":35},{"lon":21.24837,"lat":48.63143,"ROUTE_NUMBER":"Os 6419 ","DELAY":0,"Current_Stop":"Haniska pri Košiciach","From":"Moldava nad Bodvou mesto","Destination":"Košice","Direction":26,"Current_Time":1615206650568,"Current_Day":8,"Current_Hour":13,"Current_Minutes":30,"Current_Seconds":50},{"lon":21.01324,"lat":48.89469,"ROUTE_NUMBER":"R 603 TATRAN","DELAY":240,"Current_Stop":"Margecany","From":"Bratislava hlavná stanica","Destination":"Košice","Direction":20,"Current_Time":1615207160773,"Current_Day":8,"Current_Hour":13,"Current_Minutes":39,"Current_Seconds":20},{"lon":20.80377,"lat":48.93557,"ROUTE_NUMBER":"Os 7821 ","DELAY":0,"Current_Stop":"Spišské Vlachy","From":"Poprad-Tatry","Destination":"Košice","Direction":17,"Current_Time":1615207295763,"Current_Day":8,"Current_Hour":13,"Current_Minutes":41,"Current_Seconds":35},{"lon":21.00288,"lat":48.60123,"ROUTE_NUMBER":"R 814 GEMERAN","DELAY":-120,"Current_Stop":"Moldava nad Bodvou","From":"Košice","Destination":"Bratislava hlavná stanica","Direction":23,"Current_Time":1615207640919,"Current_Day":8,"Current_Hour":13,"Current_Minutes":47,"Current_Seconds":20},{"lon":21.241086,"lat":48.873332,"ROUTE_NUMBER":"Os 8551 ","DELAY":0,"Current_Stop":"Ličartovce","From":"Prešov","Destination":"Kysak","Direction":29,"Current_Time":1615172485046,"Current_Day":8,"Current_Hour":4,"Current_Minutes":1,"Current_Seconds":25},{"lon":21.82483,"lat":48.86766,"ROUTE_NUMBER":"Os 9100 ","DELAY":0,"Current_Stop":"Strážske","From":"Humenné","Destination":"Prešov","Direction":3,"Current_Time":1615172485046,"Current_Day":8,"Current_Hour":4,"Current_Minutes":1,"Current_Seconds":25},{"lon":21.32044,"lat":49.04386,"ROUTE_NUMBER":"Os 9140 ","DELAY":0,"Current_Stop":"Kapušany pri Prešove","From":"Vranov nad Topľou","Destination":"Prešov","Direction":31,"Current_Time":1615173895448,"Current_Day":8,"Current_Hour":4,"Current_Minutes":24,"Current_Seconds":55},{"lon":21.22393,"lat":48.85288,"ROUTE_NUMBER":"Os 8500 ","DELAY":300,"Current_Stop":"Kysak","From":"Košice","Destination":"Lipany","Direction":21,"Current_Time":1615174165521,"Current_Day":8,"Current_Hour":4,"Current_Minutes":29,"Current_Seconds":25},{"lon":21.32044,"lat":49.04386,"ROUTE_NUMBER":"Os 9101 ","DELAY":0,"Current_Stop":"Kapušany pri Prešove","From":"Prešov","Destination":"Humenné","Direction":12,"Current_Time":1615174180538,"Current_Day":8,"Current_Hour":4,"Current_Minutes":29,"Current_Seconds":40},{"lon":21.01324,"lat":48.89469,"ROUTE_NUMBER":"R 615 TATRAN ZEMPLÍN","DELAY":780,"Current_Stop":"Margecany","From":"Bratislava hlavná stanica","Destination":"Humenné","Direction":30,"Current_Time":1615174315549,"Current_Day":8,"Current_Hour":4,"Current_Minutes":31,"Current_Seconds":55},{"lon":21.22393,"lat":48.85288,"ROUTE_NUMBER":"Os 7800 ","DELAY":420,"Current_Stop":"Kysak","From":"Košice","Destination":"Poprad-Tatry","Direction":9,"Current_Time":1615174600657,"Current_Day":8,"Current_Hour":4,"Current_Minutes":36,"Current_Seconds":40},{"lon":20.56151,"lat":48.95041,"ROUTE_NUMBER":"Os 3406 ","DELAY":480,"Current_Stop":"Spišská Nová Ves","From":"Margecany","Destination":"Žilina","Direction":28,"Current_Time":1615174735780,"Current_Day":8,"Current_Hour":4,"Current_Minutes":38,"Current_Seconds":55},{"lon":22.05519,"lat":48.95489,"ROUTE_NUMBER":"Os 9401 ","DELAY":0,"Current_Stop":"Dlhé nad Cirochou","From":"Humenné","Destination":"Stakčín","Direction":6,"Current_Time":1615175186065,"Current_Day":8,"Current_Hour":4,"Current_Minutes":46,"Current_Seconds":26},{"lon":20.471821,"lat":49.184593,"ROUTE_NUMBER":"Os 8301 ","DELAY":0,"Current_Stop":"Spišská Belá zastávka","From":"Poprad-Tatry","Destination":"Stará Ľubovňa","Direction":2,"Current_Time":1615175546074,"Current_Day":8,"Current_Hour":4,"Current_Minutes":52,"Current_Seconds":26},{"lon":20.471821,"lat":49.184593,"ROUTE_NUMBER":"Os 8301 ","DELAY":0,"Current_Stop":"Spišská Belá zastávka","From":"Poprad-Tatry","Destination":"Stará Ľubovňa","Direction":2,"Current_Time":1615175576025,"Current_Day":8,"Current_Hour":4,"Current_Minutes":52,"Current_Seconds":56},{"lon":21.95465,"lat":49.05145,"ROUTE_NUMBER":"Os 8903 ","DELAY":0,"Current_Stop":"Koškovce","From":"Humenné","Destination":"Medzilaborce mesto","Direction":13,"Current_Time":1615176056195,"Current_Day":8,"Current_Hour":5,"Current_Minutes":0,"Current_Seconds":56},{"lon":20.52637,"lat":49.25529,"ROUTE_NUMBER":"Os 8302 ","DELAY":0,"Current_Stop":"Podolínec","From":"Stará Ľubovňa","Destination":"Poprad-Tatry","Direction":22,"Current_Time":1615176326235,"Current_Day":8,"Current_Hour":5,"Current_Minutes":5,"Current_Seconds":26},{"lon":21.245198,"lat":48.911472,"ROUTE_NUMBER":"Os 8500 ","DELAY":1020,"Current_Stop":"Drienovská Nová Ves","From":"Košice","Destination":"Lipany","Direction":21,"Current_Time":1615176341238,"Current_Day":8,"Current_Hour":5,"Current_Minutes":5,"Current_Seconds":41},{"lon":20.56151,"lat":48.95041,"ROUTE_NUMBER":"Os 7805 ","DELAY":300,"Current_Stop":"Spišská Nová Ves","From":"Poprad-Tatry","Destination":"Košice","Direction":17,"Current_Time":1615176401398,"Current_Day":8,"Current_Hour":5,"Current_Minutes":6,"Current_Seconds":41},{"lon":21.32044,"lat":49.04386,"ROUTE_NUMBER":"Os 9100 ","DELAY":0,"Current_Stop":"Kapušany pri Prešove","From":"Humenné","Destination":"Prešov","Direction":3,"Current_Time":1615177166497,"Current_Day":8,"Current_Hour":5,"Current_Minutes":19,"Current_Seconds":26},{"lon":21.26712,"lat":49.01659,"ROUTE_NUMBER":"Os 9103 ","DELAY":660,"Current_Stop":"Šarišské Lúky","From":"Prešov","Destination":"Strážske","Direction":36,"Current_Time":1615177376527,"Current_Day":8,"Current_Hour":5,"Current_Minutes":22,"Current_Seconds":56},{"lon":21.91384,"lat":48.39032,"ROUTE_NUMBER":"Os 8804 ","DELAY":120,"Current_Stop":"Veľký Horeš","From":"Čierna nad Tisou","Destination":"Košice","Direction":25,"Current_Time":1615177436549,"Current_Day":8,"Current_Hour":5,"Current_Minutes":23,"Current_Seconds":56},{"lon":20.94725,"lat":48.85834,"ROUTE_NUMBER":"Os 7451 ","DELAY":0,"Current_Stop":"Gelnica","From":"Dobšinská Ľadová Jaskyňa","Destination":"Margecany","Direction":33,"Current_Time":1615178186712,"Current_Day":8,"Current_Hour":5,"Current_Minutes":36,"Current_Seconds":26},{"lon":21.22393,"lat":48.85288,"ROUTE_NUMBER":"Os 8501 ","DELAY":780,"Current_Stop":"Kysak","From":"Lipany","Destination":"Košice","Direction":18,"Current_Time":1615178396768,"Current_Day":8,"Current_Hour":5,"Current_Minutes":39,"Current_Seconds":56},{"lon":20.88565,"lat":48.82017,"ROUTE_NUMBER":"Os 7402 ","DELAY":0,"Current_Stop":"Prakovce","From":"Margecany","Destination":"Nálepkovo","Direction":14,"Current_Time":1615179116975,"Current_Day":8,"Current_Hour":5,"Current_Minutes":51,"Current_Seconds":56},{"lon":21.89858,"lat":48.75074,"ROUTE_NUMBER":"Os 9003 ","DELAY":0,"Current_Stop":"Michalovce","From":"Michaľany","Destination":"Humenné","Direction":38,"Current_Time":1615179296981,"Current_Day":8,"Current_Hour":5,"Current_Minutes":54,"Current_Seconds":56},{"lon":21.0886,"lat":49.10324,"ROUTE_NUMBER":"Os 8500 ","DELAY":660,"Current_Stop":"Sabinov","From":"Košice","Destination":"Lipany","Direction":21,"Current_Time":1615179326988,"Current_Day":8,"Current_Hour":5,"Current_Minutes":55,"Current_Seconds":26},{"lon":21.241086,"lat":48.873332,"ROUTE_NUMBER":"Os 8502 ","DELAY":300,"Current_Stop":"Ličartovce","From":"Košice","Destination":"Lipany","Direction":21,"Current_Time":1615180017152,"Current_Day":8,"Current_Hour":6,"Current_Minutes":6,"Current_Seconds":57},{"lon":21.56926,"lat":48.98993,"ROUTE_NUMBER":"Os 9103 ","DELAY":660,"Current_Stop":"Čierne nad Topľou","From":"Prešov","Destination":"Strážske","Direction":36,"Current_Time":1615180137138,"Current_Day":8,"Current_Hour":6,"Current_Minutes":8,"Current_Seconds":57},{"lon":21.32044,"lat":49.04386,"ROUTE_NUMBER":"Os 9205 ","DELAY":-120,"Current_Stop":"Kapušany pri Prešove","From":"Prešov","Destination":"Bardejov","Direction":4,"Current_Time":1615180707326,"Current_Day":8,"Current_Hour":6,"Current_Minutes":18,"Current_Seconds":27},{"lon":21.82483,"lat":48.86766,"ROUTE_NUMBER":"Os 9040 ","DELAY":0,"Current_Stop":"Strážske","From":"Humenné","Destination":"Trebišov","Direction":41,"Current_Time":1615180977428,"Current_Day":8,"Current_Hour":6,"Current_Minutes":22,"Current_Seconds":57},{"lon":20.56151,"lat":48.95041,"ROUTE_NUMBER":"Os 7802 ","DELAY":240,"Current_Stop":"Spišská Nová Ves","From":"Košice","Destination":"Poprad-Tatry","Direction":9,"Current_Time":1615182808037,"Current_Day":8,"Current_Hour":6,"Current_Minutes":53,"Current_Seconds":28},{"lon":20.56151,"lat":48.95041,"ROUTE_NUMBER":"Os 7802 ","DELAY":240,"Current_Stop":"Spišská Nová Ves","From":"Košice","Destination":"Poprad-Tatry","Direction":9,"Current_Time":1615182838052,"Current_Day":8,"Current_Hour":6,"Current_Minutes":53,"Current_Seconds":58},{"lon":21.24837,"lat":48.63143,"ROUTE_NUMBER":"Os 6404 ","DELAY":60,"Current_Stop":"Haniska pri Košiciach","From":"Košice","Destination":"Moldava nad Bodvou mesto","Direction":35,"Current_Time":1615182898039,"Current_Day":8,"Current_Hour":6,"Current_Minutes":54,"Current_Seconds":58},{"lon":20.94725,"lat":48.85834,"ROUTE_NUMBER":"Os 7405 ","DELAY":0,"Current_Stop":"Gelnica","From":"Nálepkovo","Destination":"Margecany","Direction":7,"Current_Time":1615182928054,"Current_Day":8,"Current_Hour":6,"Current_Minutes":55,"Current_Seconds":28},{"lon":21.89858,"lat":48.75074,"ROUTE_NUMBER":"Os 9005 ","DELAY":-60,"Current_Stop":"Michalovce","From":"Michaľany","Destination":"Humenné","Direction":38,"Current_Time":1615182958075,"Current_Day":8,"Current_Hour":6,"Current_Minutes":55,"Current_Seconds":58},{"lon":20.81501,"lat":48.81167,"ROUTE_NUMBER":"Os 7407 ","DELAY":0,"Current_Stop":"Mníšek nad Hnilcom","From":"Nálepkovo","Destination":"Margecany","Direction":7,"Current_Time":1615183588354,"Current_Day":8,"Current_Hour":7,"Current_Minutes":6,"Current_Seconds":28},{"lon":21.20295,"lat":49.04477,"ROUTE_NUMBER":"Os 8507 ","DELAY":240,"Current_Stop":"Veľký Šariš","From":"Lipany","Destination":"Košice","Direction":18,"Current_Time":1615184383531,"Current_Day":8,"Current_Hour":7,"Current_Minutes":19,"Current_Seconds":43},{"lon":21.22393,"lat":48.85288,"ROUTE_NUMBER":"R 801 GEMERAN POĽANA","DELAY":240,"Current_Stop":"Kysak","From":"Bratislava-Nové Mesto","Destination":"Prešov","Direction":43,"Current_Time":1615184578618,"Current_Day":8,"Current_Hour":7,"Current_Minutes":22,"Current_Seconds":58},{"lon":21.82483,"lat":48.86766,"ROUTE_NUMBER":"REX 1904 ","DELAY":180,"Current_Stop":"Strážske","From":"Humenné","Destination":"Košice","Direction":10,"Current_Time":1615185749062,"Current_Day":8,"Current_Hour":7,"Current_Minutes":42,"Current_Seconds":29},{"lon":21.6674,"lat":48.40282,"ROUTE_NUMBER":"Os 8808 ","DELAY":0,"Current_Stop":"Slovenské Nové Mesto","From":"Čierna nad Tisou","Destination":"Košice","Direction":25,"Current_Time":1615186019207,"Current_Day":8,"Current_Hour":7,"Current_Minutes":46,"Current_Seconds":59},{"lon":21.241086,"lat":48.873332,"ROUTE_NUMBER":"Os 8507 ","DELAY":60,"Current_Stop":"Ličartovce","From":"Lipany","Destination":"Košice","Direction":18,"Current_Time":1615187039453,"Current_Day":8,"Current_Hour":8,"Current_Minutes":3,"Current_Seconds":59},{"lon":21.22393,"lat":48.85288,"ROUTE_NUMBER":"Os 8507 ","DELAY":420,"Current_Stop":"Kysak","From":"Lipany","Destination":"Košice","Direction":18,"Current_Time":1615187744654,"Current_Day":8,"Current_Hour":8,"Current_Minutes":15,"Current_Seconds":44},{"lon":21.22393,"lat":48.85288,"ROUTE_NUMBER":"R 604 TATRAN","DELAY":360,"Current_Stop":"Kysak","From":"Košice","Destination":"Bratislava hlavná stanica","Direction":23,"Current_Time":1615187804656,"Current_Day":8,"Current_Hour":8,"Current_Minutes":16,"Current_Seconds":44},{"lon":21.249126,"lat":48.983379,"ROUTE_NUMBER":"Os 8506 ","DELAY":480,"Current_Stop":"Prešov","From":"Košice","Destination":"Lipany","Direction":21,"Current_Time":1615188299825,"Current_Day":8,"Current_Hour":8,"Current_Minutes":24,"Current_Seconds":59},{"lon":20.72323,"lat":48.8055,"ROUTE_NUMBER":"Os 7411 ","DELAY":0,"Current_Stop":"Švedlár","From":"Nálepkovo","Destination":"Margecany","Direction":7,"Current_Time":1615190370332,"Current_Day":8,"Current_Hour":8,"Current_Minutes":59,"Current_Seconds":30},{"lon":21.32044,"lat":49.04386,"ROUTE_NUMBER":"Os 9111 ","DELAY":120,"Current_Stop":"Kapušany pri Prešove","From":"Prešov","Destination":"Humenné","Direction":12,"Current_Time":1615190400346,"Current_Day":8,"Current_Hour":9,"Current_Minutes":0,"Current_Seconds":0},{"lon":21.31413,"lat":49.14945,"ROUTE_NUMBER":"Os 9209 ","DELAY":120,"Current_Stop":"Raslavice","From":"Prešov","Destination":"Bardejov","Direction":4,"Current_Time":1615190490362,"Current_Day":8,"Current_Hour":9,"Current_Minutes":1,"Current_Seconds":30},{"lon":21.95465,"lat":49.05145,"ROUTE_NUMBER":"Os 8908 ","DELAY":0,"Current_Stop":"Koškovce","From":"Medzilaborce mesto","Destination":"Humenné","Direction":1,"Current_Time":1615190685400,"Current_Day":8,"Current_Hour":9,"Current_Minutes":4,"Current_Seconds":45},{"lon":21.24837,"lat":48.63143,"ROUTE_NUMBER":"Os 6411 ","DELAY":0,"Current_Stop":"Haniska pri Košiciach","From":"Moldava nad Bodvou mesto","Destination":"Košice","Direction":26,"Current_Time":1615192155784,"Current_Day":8,"Current_Hour":9,"Current_Minutes":29,"Current_Seconds":15},{"lon":21.24601,"lat":48.7958,"ROUTE_NUMBER":"Os 7810 ","DELAY":300,"Current_Stop":"Kostoľany nad Hornádom","From":"Košice","Destination":"Poprad-Tatry","Direction":9,"Current_Time":1615192365844,"Current_Day":8,"Current_Hour":9,"Current_Minutes":32,"Current_Seconds":45},{"lon":21.249126,"lat":48.983379,"ROUTE_NUMBER":"Os 8511 ","DELAY":0,"Current_Stop":"Prešov","From":"Lipany","Destination":"Košice","Direction":18,"Current_Time":1615192966073,"Current_Day":8,"Current_Hour":9,"Current_Minutes":42,"Current_Seconds":46},{"lon":21.24601,"lat":48.7958,"ROUTE_NUMBER":"Os 8510 ","DELAY":360,"Current_Stop":"Kostoľany nad Hornádom","From":"Košice","Destination":"Lipany","Direction":21,"Current_Time":1615193566248,"Current_Day":8,"Current_Hour":9,"Current_Minutes":52,"Current_Seconds":46},{"lon":21.82483,"lat":48.86766,"ROUTE_NUMBER":"Os 9112 ","DELAY":0,"Current_Stop":"Strážske","From":"Humenné","Destination":"Prešov","Direction":3,"Current_Time":1615193566248,"Current_Day":8,"Current_Hour":9,"Current_Minutes":52,"Current_Seconds":46},{"lon":21.75188,"lat":48.85705,"ROUTE_NUMBER":"Os 9111 ","DELAY":0,"Current_Stop":"Nižný Hrabovec","From":"Prešov","Destination":"Humenné","Direction":12,"Current_Time":1615193896367,"Current_Day":8,"Current_Hour":9,"Current_Minutes":58,"Current_Seconds":16},{"lon":21.01324,"lat":48.89469,"ROUTE_NUMBER":"Os 7810 ","DELAY":480,"Current_Stop":"Margecany","From":"Košice","Destination":"Poprad-Tatry","Direction":9,"Current_Time":1615194316435,"Current_Day":8,"Current_Hour":10,"Current_Minutes":5,"Current_Seconds":16},{"lon":21.82483,"lat":48.86766,"ROUTE_NUMBER":"Os 9111 ","DELAY":0,"Current_Stop":"Strážske","From":"Prešov","Destination":"Humenné","Direction":12,"Current_Time":1615194691506,"Current_Day":8,"Current_Hour":10,"Current_Minutes":11,"Current_Seconds":31},{"lon":20.471821,"lat":49.184593,"ROUTE_NUMBER":"Os 8311 ","DELAY":0,"Current_Stop":"Spišská Belá zastávka","From":"Poprad-Tatry","Destination":"Stará Ľubovňa","Direction":2,"Current_Time":1615195111631,"Current_Day":8,"Current_Hour":10,"Current_Minutes":18,"Current_Seconds":31},{"lon":21.24601,"lat":48.7958,"ROUTE_NUMBER":"Os 8512 ","DELAY":0,"Current_Stop":"Kostoľany nad Hornádom","From":"Košice","Destination":"Prešov","Direction":11,"Current_Time":1615196852157,"Current_Day":8,"Current_Hour":10,"Current_Minutes":47,"Current_Seconds":32},{"lon":20.72323,"lat":48.8055,"ROUTE_NUMBER":"Os 7415 ","DELAY":0,"Current_Stop":"Švedlár","From":"Nálepkovo","Destination":"Margecany","Direction":7,"Current_Time":1615197047215,"Current_Day":8,"Current_Hour":10,"Current_Minutes":50,"Current_Seconds":47},{"lon":21.990302,"lat":48.933803,"ROUTE_NUMBER":"Os 9415 ","DELAY":0,"Current_Stop":"Kamenica nad Cirochou","From":"Humenné","Destination":"Stakčín","Direction":6,"Current_Time":1615197077214,"Current_Day":8,"Current_Hour":10,"Current_Minutes":51,"Current_Seconds":17},{"lon":21.6674,"lat":48.40282,"ROUTE_NUMBER":"Os 8814 ","DELAY":360,"Current_Stop":"Slovenské Nové Mesto","From":"Čierna nad Tisou","Destination":"Košice","Direction":25,"Current_Time":1615197137261,"Current_Day":8,"Current_Hour":10,"Current_Minutes":52,"Current_Seconds":17},{"lon":21.32044,"lat":49.04386,"ROUTE_NUMBER":"Os 9115 ","DELAY":0,"Current_Stop":"Kapušany pri Prešove","From":"Prešov","Destination":"Humenné","Direction":12,"Current_Time":1615197497413,"Current_Day":8,"Current_Hour":10,"Current_Minutes":58,"Current_Seconds":17},{"lon":21.31413,"lat":49.14945,"ROUTE_NUMBER":"Os 9212 ","DELAY":0,"Current_Stop":"Raslavice","From":"Bardejov","Destination":"Prešov","Direction":16,"Current_Time":1615197737426,"Current_Day":8,"Current_Hour":11,"Current_Minutes":2,"Current_Seconds":17},{"lon":21.249126,"lat":48.983379,"ROUTE_NUMBER":"Os 8515 ","DELAY":0,"Current_Stop":"Prešov","From":"Lipany","Destination":"Košice","Direction":18,"Current_Time":1615200168177,"Current_Day":8,"Current_Hour":11,"Current_Minutes":42,"Current_Seconds":48},{"lon":21.22393,"lat":48.85288,"ROUTE_NUMBER":"R 601 TATRAN","DELAY":0,"Current_Stop":"Kysak","From":"Bratislava hlavná stanica","Destination":"Košice","Direction":20,"Current_Time":1615200708404,"Current_Day":8,"Current_Hour":11,"Current_Minutes":51,"Current_Seconds":48},{"lon":21.24601,"lat":48.7958,"ROUTE_NUMBER":"Os 8514 ","DELAY":840,"Current_Stop":"Kostoľany nad Hornádom","From":"Košice","Destination":"Lipany","Direction":21,"Current_Time":1615201248631,"Current_Day":8,"Current_Hour":12,"Current_Minutes":0,"Current_Seconds":48},{"lon":21.0886,"lat":49.10324,"ROUTE_NUMBER":"Os 8517 ","DELAY":0,"Current_Stop":"Sabinov","From":"Lipany","Destination":"Košice","Direction":18,"Current_Time":1615202269189,"Current_Day":8,"Current_Hour":12,"Current_Minutes":17,"Current_Seconds":49},{"lon":21.90506,"lat":49.26186,"ROUTE_NUMBER":"Os 8916 ","DELAY":0,"Current_Stop":"Medzilaborce","From":"Medzilaborce mesto","Destination":"Humenné","Direction":1,"Current_Time":1615202809417,"Current_Day":8,"Current_Hour":12,"Current_Minutes":26,"Current_Seconds":49},{"lon":20.63426,"lat":48.91024,"ROUTE_NUMBER":"Os 7814 ","DELAY":660,"Current_Stop":"Markušovce","From":"Košice","Destination":"Poprad-Tatry","Direction":9,"Current_Time":1615203649721,"Current_Day":8,"Current_Hour":12,"Current_Minutes":40,"Current_Seconds":49},{"lon":22.05519,"lat":48.95489,"ROUTE_NUMBER":"Os 9419 ","DELAY":0,"Current_Stop":"Dlhé nad Cirochou","From":"Humenné","Destination":"Stakčín","Direction":6,"Current_Time":1615205000089,"Current_Day":8,"Current_Hour":13,"Current_Minutes":3,"Current_Seconds":20},{"lon":21.241086,"lat":48.873332,"ROUTE_NUMBER":"Os 8517 ","DELAY":480,"Current_Stop":"Ličartovce","From":"Lipany","Destination":"Košice","Direction":18,"Current_Time":1615205270124,"Current_Day":8,"Current_Hour":13,"Current_Minutes":7,"Current_Seconds":50},{"lon":20.56151,"lat":48.95041,"ROUTE_NUMBER":"Os 7821 ","DELAY":420,"Current_Stop":"Spišská Nová Ves","From":"Poprad-Tatry","Destination":"Košice","Direction":17,"Current_Time":1615205420141,"Current_Day":8,"Current_Hour":13,"Current_Minutes":10,"Current_Seconds":20},{"lon":21.6262,"lat":48.52172,"ROUTE_NUMBER":"Os 8817 ","DELAY":300,"Current_Stop":"Michaľany","From":"Košice","Destination":"Čierna nad Tisou","Direction":8,"Current_Time":1615205480161,"Current_Day":8,"Current_Hour":13,"Current_Minutes":11,"Current_Seconds":20},{"lon":21.0886,"lat":49.10324,"ROUTE_NUMBER":"Os 8519 ","DELAY":360,"Current_Stop":"Sabinov","From":"Lipany","Destination":"Košice","Direction":18,"Current_Time":1615206290511,"Current_Day":8,"Current_Hour":13,"Current_Minutes":24,"Current_Seconds":50},{"lon":21.6674,"lat":48.40282,"ROUTE_NUMBER":"Os 8817 ","DELAY":480,"Current_Stop":"Slovenské Nové Mesto","From":"Košice","Destination":"Čierna nad Tisou","Direction":8,"Current_Time":1615206455485,"Current_Day":8,"Current_Hour":13,"Current_Minutes":27,"Current_Seconds":35},{"lon":21.01324,"lat":48.89469,"ROUTE_NUMBER":"R 603 TATRAN","DELAY":240,"Current_Stop":"Margecany","From":"Bratislava hlavná stanica","Destination":"Košice","Direction":20,"Current_Time":1615207190722,"Current_Day":8,"Current_Hour":13,"Current_Minutes":39,"Current_Seconds":50},{"lon":21.67319,"lat":48.89062,"ROUTE_NUMBER":"Os 9119 ","DELAY":0,"Current_Stop":"Vranov nad Topľou","From":"Prešov","Destination":"Humenné","Direction":12,"Current_Time":1615207775889,"Current_Day":8,"Current_Hour":13,"Current_Minutes":49,"Current_Seconds":35},{"lon":20.88621,"lat":48.92171,"ROUTE_NUMBER":"Os 7821 ","DELAY":0,"Current_Stop":"Krompachy","From":"Poprad-Tatry","Destination":"Košice","Direction":17,"Current_Time":1615208151085,"Current_Day":8,"Current_Hour":13,"Current_Minutes":55,"Current_Seconds":51},{"lon":21.89858,"lat":48.75074,"ROUTE_NUMBER":"REX 1900 ","DELAY":0,"Current_Stop":"Michalovce","From":"Humenné","Destination":"Košice","Direction":10,"Current_Time":1615172244983,"Current_Day":8,"Current_Hour":3,"Current_Minutes":57,"Current_Seconds":24},{"lon":21.89858,"lat":48.75074,"ROUTE_NUMBER":"REX 1900 ","DELAY":0,"Current_Stop":"Michalovce","From":"Humenné","Destination":"Košice","Direction":10,"Current_Time":1615172260001,"Current_Day":8,"Current_Hour":3,"Current_Minutes":57,"Current_Seconds":40},{"lon":21.75188,"lat":48.85705,"ROUTE_NUMBER":"Os 9100 ","DELAY":-60,"Current_Stop":"Nižný Hrabovec","From":"Humenné","Destination":"Prešov","Direction":3,"Current_Time":1615172995144,"Current_Day":8,"Current_Hour":4,"Current_Minutes":9,"Current_Seconds":55},{"lon":22.05519,"lat":48.95489,"ROUTE_NUMBER":"Os 9400 ","DELAY":0,"Current_Stop":"Dlhé nad Cirochou","From":"Stakčín","Destination":"Humenné","Direction":5,"Current_Time":1615175035805,"Current_Day":8,"Current_Hour":4,"Current_Minutes":43,"Current_Seconds":55},{"lon":21.519728,"lat":49.019015,"ROUTE_NUMBER":"Os 9100 ","DELAY":0,"Current_Stop":"Hanušovce nad Topľou","From":"Humenné","Destination":"Prešov","Direction":3,"Current_Time":1615175245929,"Current_Day":8,"Current_Hour":4,"Current_Minutes":47,"Current_Seconds":25},{"lon":21.22393,"lat":48.85288,"ROUTE_NUMBER":"R 615 TATRAN ZEMPLÍN","DELAY":1140,"Current_Stop":"Kysak","From":"Bratislava hlavná stanica","Destination":"Humenné","Direction":30,"Current_Time":1615175455944,"Current_Day":8,"Current_Hour":4,"Current_Minutes":50,"Current_Seconds":55},{"lon":20.56151,"lat":48.95041,"ROUTE_NUMBER":"REX 1761 ","DELAY":180,"Current_Stop":"Spišská Nová Ves","From":"Poprad-Tatry","Destination":"Košice","Direction":17,"Current_Time":1615175500966,"Current_Day":8,"Current_Hour":4,"Current_Minutes":51,"Current_Seconds":40},{"lon":21.01324,"lat":48.89469,"ROUTE_NUMBER":"Os 7803 ","DELAY":540,"Current_Stop":"Margecany","From":"Poprad-Tatry","Destination":"Košice","Direction":17,"Current_Time":1615175876116,"Current_Day":8,"Current_Hour":4,"Current_Minutes":57,"Current_Seconds":56},{"lon":21.31413,"lat":49.14945,"ROUTE_NUMBER":"Os 9202 ","DELAY":0,"Current_Stop":"Raslavice","From":"Bardejov","Destination":"Prešov","Direction":16,"Current_Time":1615176206284,"Current_Day":8,"Current_Hour":5,"Current_Minutes":3,"Current_Seconds":26},{"lon":21.31413,"lat":49.14945,"ROUTE_NUMBER":"Os 9202 ","DELAY":0,"Current_Stop":"Raslavice","From":"Bardejov","Destination":"Prešov","Direction":16,"Current_Time":1615176221192,"Current_Day":8,"Current_Hour":5,"Current_Minutes":3,"Current_Seconds":41},{"lon":20.52637,"lat":49.25529,"ROUTE_NUMBER":"Os 8302 ","DELAY":0,"Current_Stop":"Podolínec","From":"Stará Ľubovňa","Destination":"Poprad-Tatry","Direction":22,"Current_Time":1615176356272,"Current_Day":8,"Current_Hour":5,"Current_Minutes":5,"Current_Seconds":56},{"lon":20.88565,"lat":48.82017,"ROUTE_NUMBER":"Os 7451 ","DELAY":0,"Current_Stop":"Prakovce","From":"Dobšinská Ľadová Jaskyňa","Destination":"Margecany","Direction":33,"Current_Time":1615177361529,"Current_Day":8,"Current_Hour":5,"Current_Minutes":22,"Current_Seconds":41},